$GPRMC,093921.265,V,3654.928,N,07702.496,W,44.9,1.69,220716,,E*4B
$GPGGA,093922.265,3654.928,N,07702.496,W,0,00,,,M,,M,,*5D
$GPGLL,3654.928,N,07702.496,W,093923.265,V*3C
$GPGSV,2,1,06,01,21,046,61,17,37,246,19,06,39,314,53,18,82,244,80*74
$GPGSV,2,2,06,05,69,180,60,01,88,050,31*7C
$GPRMC,093926.265,V,3654.927,N,07702.496,W,78.8,1.70,220716,,E*45
$GPGGA,093927.265,3654.927,N,07702.496,W,0,04,,,M,,M,,*53
$GPGLL,3654.927,N,07702.496,W,093928.265,V*38
$GPGSV,2,1,06,01,87,267,53,17,88,231,15,06,08,285,21,18,56,293,75*77
$GPGSV,2,2,06,05,32,025,50,01,12,094,56*75
$GPRMC,093931.265,V,3654.925,N,07702.495,W,57.1,1.60,220716,,E*47
$GPGGA,093932.265,3654.925,N,07702.495,W,0,04,,,M,,M,,*56
$GPGLL,3654.925,N,07702.495,W,093933.265,V*33
$GPGSV,2,1,06,01,19,188,56,17,60,143,52,06,81,323,19,18,41,136,41*7E
$GPGSV,2,2,06,05,44,337,15,01,23,145,87*76
$GPRMC,093936.265,V,3654.923,N,07702.494,W,26.0,1.68,220716,,E*48
$GPGGA,093937.265,3654.923,N,07702.494,W,0,04,,,M,,M,,*54
$GPGLL,3654.923,N,07702.494,W,093938.265,V*3F
$GPGSV,2,1,06,01,23,263,84,17,43,270,20,06,30,333,70,18,09,332,33*72
$GPGSV,2,2,06,05,74,007,40,01,43,111,55*7D
$GPRMC,093941.265,V,3654.922,N,07702.493,W,61.4,1.84,220716,,E*4B
$GPGGA,093942.265,3654.922,N,07702.493,W,0,04,,,M,,M,,*50
$GPGLL,3654.922,N,07702.493,W,093943.265,V*35
$GPGSV,2,1,06,01,53,165,46,17,86,225,38,06,31,224,66,18,10,135,54*73
$GPGSV,2,2,06,05,07,169,70,01,21,036,62*77
$GPRMC,093946.265,V,3654.920,N,07702.492,W,81.6,1.53,220716,,E*49
$GPGGA,093947.265,3654.920,N,07702.492,W,0,04,,,M,,M,,*56
$GPGLL,3654.920,N,07702.492,W,093948.265,V*3D
$GPGSV,2,1,06,01,74,157,51,17,71,018,18,06,71,188,38,18,31,124,38*74
$GPGSV,2,2,06,05,59,307,71,01,75,339,32*7F
$GPRMC,093951.265,V,3654.919,N,07702.491,W,96.9,1.63,220716,,E*4C
$GPGGA,093952.265,3654.919,N,07702.491,W,0,04,,,M,,M,,*5B
$GPGLL,3654.919,N,07702.491,W,093953.265,V*3E
$GPGSV,2,1,06,01,30,273,26,17,73,038,17,06,35,341,53,18,05,124,78*77
$GPGSV,2,2,06,05,36,246,87,01,25,228,55*7E
$GPRMC,093956.265,V,3654.917,N,07702.490,W,93.7,1.74,220716,,E*49
$GPGGA,093957.265,3654.917,N,07702.490,W,0,04,,,M,,M,,*51
$GPGLL,3654.917,N,07702.490,W,093958.265,V*3A
$GPGSV,2,1,06,01,69,012,84,17,12,132,42,06,39,250,50,18,22,135,26*7A
$GPGSV,2,2,06,05,35,163,76,01,75,224,19*76
$GPRMC,094001.265,V,3654.916,N,07702.489,W,85.1,1.39,220716,,E*44
$GPGGA,094002.265,3654.916,N,07702.489,W,0,04,,,M,,M,,*56
$GPGLL,3654.916,N,07702.489,W,094003.265,V*33
$GPGSV,2,1,06,01,21,059,57,17,10,253,22,06,73,099,50,18,43,109,87*7D
$GPGSV,2,2,06,05,82,247,60,01,64,044,62*70
$GPRMC,094006.265,V,3654.915,N,07702.487,W,45.5,1.34,220716,,E*4B
$GPGGA,094007.265,3654.915,N,07702.487,W,0,04,,,M,,M,,*5E
$GPGLL,3654.915,N,07702.487,W,094008.265,V*35
$GPGSV,2,1,06,01,40,050,30,17,09,346,88,06,45,142,36,18,35,064,65*7A
$GPGSV,2,2,06,05,67,327,63,01,37,002,38*74
$GPRMC,094011.265,V,3654.914,N,07702.486,W,61.6,1.39,220716,,E*45
$GPGGA,094012.265,3654.914,N,07702.486,W,0,04,,,M,,M,,*5A
$GPGLL,3654.914,N,07702.486,W,094013.265,V*3F
$GPGSV,2,1,06,01,09,148,18,17,24,118,50,06,73,163,15,18,59,338,54*73
$GPGSV,2,2,06,05,61,140,50,01,23,312,87*72
$GPRMC,094016.265,V,3654.914,N,07702.484,W,58.0,1.23,220716,,E*47
$GPGGA,094017.265,3654.914,N,07702.484,W,0,04,,,M,,M,,*5D
$GPGLL,3654.914,N,07702.484,W,094018.265,V*36
$GPGSV,2,1,06,01,15,127,79,17,84,285,39,06,40,103,56,18,38,250,25*7D
$GPGSV,2,2,06,05,44,166,29,01,23,161,76*77
$GPRMC,094021.265,V,3654.912,N,07702.483,W,77.6,1.59,220716,,E*44
$GPGGA,094022.265,3654.912,N,07702.483,W,0,04,,,M,,M,,*5A
$GPGLL,3654.912,N,07702.483,W,094023.265,V*3F
$GPGSV,2,1,06,01,47,004,33,17,81,296,21,06,30,266,17,18,07,299,73*72
$GPGSV,2,2,06,05,18,036,39,01,20,215,81*70
$GPRMC,094026.265,V,3654.911,N,07702.482,W,46.5,1.60,220716,,E*4A
$GPGGA,094027.265,3654.911,N,07702.482,W,0,04,,,M,,M,,*5D
$GPGLL,3654.911,N,07702.482,W,094028.265,V*36
$GPGSV,2,1,06,01,50,004,80,17,49,267,26,06,41,161,79,18,42,252,70*7E
$GPGSV,2,2,06,05,63,010,60,01,06,244,83*76
$GPRMC,094031.265,V,3654.909,N,07702.481,W,0.0,1.62,220716,,E*73
$GPGGA,094032.265,3654.909,N,07702.481,W,0,04,,,M,,M,,*53
$GPGLL,3654.909,N,07702.481,W,094033.265,V*36
$GPGSV,2,1,06,01,79,008,72,17,77,192,62,06,16,311,29,18,52,022,88*71
$GPGSV,2,2,06,05,72,295,22,01,73,250,61*74
$GPRMC,094036.265,V,3654.908,N,07702.480,W,72.6,1.66,220716,,E*43
$GPGGA,094037.265,3654.908,N,07702.480,W,0,04,,,M,,M,,*56
$GPGLL,3654.908,N,07702.480,W,094038.265,V*3D
$GPGSV,2,1,06,01,46,010,89,17,19,202,72,06,36,231,37,18,38,046,63*76
$GPGSV,2,2,06,05,36,124,72,01,28,186,68*77
$GPRMC,094041.265,V,3654.906,N,07702.479,W,30.4,1.67,220716,,E*4E
$GPGGA,094042.265,3654.906,N,07702.479,W,0,04,,,M,,M,,*5C
$GPGLL,3654.906,N,07702.479,W,094043.265,V*39
$GPGSV,2,1,06,01,65,358,23,17,58,096,79,06,37,290,34,18,51,192,45*73
$GPGSV,2,2,06,05,38,277,50,01,46,047,37*72
$GPRMC,094046.265,V,3654.905,N,07702.478,W,78.9,1.56,220716,,E*48
$GPGGA,094047.265,3654.905,N,07702.478,W,0,04,,,M,,M,,*5B
$GPGLL,3654.905,N,07702.478,W,094048.265,V*30
$GPGSV,2,1,06,01,65,263,65,17,23,086,18,06,57,004,87,18,49,234,85*79
$GPGSV,2,2,06,05,26,056,22,01,43,133,46*78
$GPRMC,094051.265,V,3654.903,N,07702.477,W,56.0,1.66,220716,,E*41
$GPGGA,094052.265,3654.903,N,07702.477,W,0,04,,,M,,M,,*56
$GPGLL,3654.903,N,07702.477,W,094053.265,V*33
$GPGSV,2,1,06,01,30,311,52,17,62,138,67,06,43,272,87,18,41,297,17*7C
$GPGSV,2,2,06,05,78,203,73,01,57,159,15*7A
$GPRMC,094056.265,V,3654.902,N,07702.476,W,52.0,1.69,220716,,E*4D
$GPGGA,094057.265,3654.902,N,07702.476,W,0,04,,,M,,M,,*53
$GPGLL,3654.902,N,07702.476,W,094058.265,V*38
$GPGSV,2,1,06,01,67,337,55,17,45,340,77,06,37,101,78,18,74,293,58*79
$GPGSV,2,2,06,05,18,096,41,01,50,005,59*74
$GPRMC,094101.265,V,3654.900,N,07702.476,W,38.2,1.78,220716,,E*42
$GPGGA,094102.265,3654.900,N,07702.476,W,0,04,,,M,,M,,*50
$GPGLL,3654.900,N,07702.476,W,094103.265,V*35
$GPGSV,2,1,06,01,14,128,44,17,85,052,87,06,12,226,34,18,06,226,52*7A
$GPGSV,2,2,06,05,65,070,31,01,12,008,73*72
$GPRMC,094106.265,V,3654.898,N,07702.475,W,5.9,1.81,220716,,E*75
$GPGGA,094107.265,3654.898,N,07702.475,W,0,04,,,M,,M,,*56
$GPGLL,3654.898,N,07702.475,W,094108.265,V*3D
$GPGSV,2,1,06,01,49,013,29,17,09,121,57,06,50,292,17,18,31,143,57*75
$GPGSV,2,2,06,05,89,250,76,01,05,172,84*71
$GPRMC,094111.265,V,3654.897,N,07702.474,W,65.7,1.76,220716,,E*4D
$GPGGA,094112.265,3654.897,N,07702.474,W,0,04,,,M,,M,,*5C
$GPGLL,3654.897,N,07702.474,W,094113.265,V*39
$GPGSV,2,1,06,01,71,088,20,17,51,179,25,06,33,033,36,18,67,142,37*7B
$GPGSV,2,2,06,05,75,044,72,01,43,135,82*76
$GPRMC,094116.265,V,3654.895,N,07702.474,W,88.3,1.77,220716,,E*4E
$GPGGA,094117.265,3654.895,N,07702.474,W,0,04,,,M,,M,,*5B
$GPGLL,3654.895,N,07702.474,W,094118.265,V*30
$GPGSV,2,1,06,01,30,113,50,17,06,088,68,06,82,105,69,18,67,217,50*78
$GPGSV,2,2,06,05,39,205,59,01,82,127,24*72
$GPRMC,094121.265,V,3654.893,N,07702.473,W,66.1,1.67,220716,,E*48
$GPGGA,094122.265,3654.893,N,07702.473,W,0,04,,,M,,M,,*5C
$GPGLL,3654.893,N,07702.473,W,094123.265,V*39
$GPGSV,2,1,06,01,28,024,50,17,11,065,75,06,73,109,29,18,09,099,72*77
$GPGSV,2,2,06,05,29,083,76,01,65,080,60*77
$GPRMC,094126.265,V,3654.892,N,07702.472,W,57.2,1.59,220716,,E*43
$GPGGA,094127.265,3654.892,N,07702.472,W,0,04,,,M,,M,,*59
$GPGLL,3654.892,N,07702.472,W,094128.265,V*32
$GPGSV,2,1,06,01,27,313,40,17,30,237,56,06,52,229,40,18,50,206,79*77
$GPGSV,2,2,06,05,77,262,76,01,60,248,88*74
$GPRMC,094131.265,V,3654.890,N,07702.471,W,96.2,1.59,220716,,E*49
$GPGGA,094132.265,3654.890,N,07702.471,W,0,04,,,M,,M,,*5C
$GPGLL,3654.890,N,07702.471,W,094133.265,V*39
$GPGSV,2,1,06,01,59,231,82,17,72,297,85,06,67,071,20,18,42,000,70*72
$GPGSV,2,2,06,05,78,037,30,01,38,315,24*79
$GPRMC,094136.265,V,3654.889,N,07702.470,W,35.1,1.51,220716,,E*45
$GPGGA,094137.265,3654.889,N,07702.470,W,0,04,,,M,,M,,*50
$GPGLL,3654.889,N,07702.470,W,094138.265,V*3B
$GPGSV,2,1,06,01,08,159,19,17,57,341,20,06,57,057,68,18,23,232,45*72
$GPGSV,2,2,06,05,33,006,40,01,47,264,38*71
$GPRMC,094141.265,V,3654.888,N,07702.468,W,41.2,1.61,220716,,E*4E
$GPGGA,094142.265,3654.888,N,07702.468,W,0,04,,,M,,M,,*5A
$GPGLL,3654.888,N,07702.468,W,094143.265,V*3F
$GPGSV,2,1,06,01,16,169,81,17,12,301,67,06,73,047,27,18,33,252,88*73
$GPGSV,2,2,06,05,52,282,44,01,57,292,43*78
$GPRMC,094146.265,V,3654.886,N,07702.467,W,36.3,1.62,220716,,E*4A
$GPGGA,094147.265,3654.886,N,07702.467,W,0,04,,,M,,M,,*5E
$GPGLL,3654.886,N,07702.467,W,094148.265,V*35
$GPGSV,2,1,06,01,54,128,27,17,69,176,71,06,87,059,85,18,31,336,48*74
$GPGSV,2,2,06,05,60,199,21,01,10,112,35*7A
$GPRMC,094151.265,V,3654.886,N,07702.466,W,13.6,1.17,220716,,E*4D
$GPGGA,094152.265,3654.886,N,07702.466,W,0,04,,,M,,M,,*5B
$GPGLL,3654.886,N,07702.466,W,094153.265,V*3E
$GPGSV,2,1,06,01,48,166,38,17,10,025,41,06,81,115,18,18,64,281,22*7D
$GPGSV,2,2,06,05,62,146,82,01,76,143,49*7C
$GPRMC,094156.265,V,3654.885,N,07702.464,W,60.7,1.15,220716,,E*4C
$GPGGA,094157.265,3654.885,N,07702.464,W,0,04,,,M,,M,,*5F
$GPGLL,3654.885,N,07702.464,W,094158.265,V*34
$GPGSV,2,1,06,01,64,258,37,17,44,108,43,06,89,150,34,18,41,134,45*73
$GPGSV,2,2,06,05,38,197,35,01,53,337,68*76
$GPRMC,094201.265,V,3654.885,N,07702.462,W,12.4,1.25,220716,,E*4E
$GPGGA,094202.265,3654.885,N,07702.462,W,0,04,,,M,,M,,*5A
$GPGLL,3654.885,N,07702.462,W,094203.265,V*3F
$GPGSV,2,1,06,01,39,060,76,17,70,125,79,06,46,164,81,18,12,091,62*71
$GPGSV,2,2,06,05,86,199,39,01,24,282,25*77
$GPRMC,094206.265,V,3654.884,N,07702.461,W,40.2,1.30,220716,,E*4E
$GPGGA,094207.265,3654.884,N,07702.461,W,0,04,,,M,,M,,*5D
$GPGLL,3654.884,N,07702.461,W,094208.265,V*36
$GPGSV,2,1,06,01,85,322,53,17,56,216,79,06,35,206,73,18,69,356,16*7A
$GPGSV,2,2,06,05,39,095,37,01,16,299,21*7F
$GPRMC,094211.265,V,3654.883,N,07702.459,W,96.6,1.19,220716,,E*40
$GPGGA,094212.265,3654.883,N,07702.459,W,0,04,,,M,,M,,*55
$GPGLL,3654.883,N,07702.459,W,094213.265,V*30
$GPGSV,2,1,06,01,69,305,59,17,26,118,43,06,63,229,42,18,30,071,87*7A
$GPGSV,2,2,06,05,51,127,59,01,50,049,28*75
$GPRMC,094216.265,V,3654.883,N,07702.457,W,82.2,1.10,220716,,E*41
$GPGGA,094217.265,3654.883,N,07702.457,W,0,04,,,M,,M,,*5E
$GPGLL,3654.883,N,07702.457,W,094218.265,V*35
$GPGSV,2,1,06,01,50,171,73,17,55,301,29,06,42,343,78,18,12,078,78*75
$GPGSV,2,2,06,05,81,011,66,01,49,330,78*70
$GPRMC,094221.265,V,3654.883,N,07702.455,W,66.5,0.99,220716,,E*4A
$GPGGA,094222.265,3654.883,N,07702.455,W,0,04,,,M,,M,,*5A
$GPGLL,3654.883,N,07702.455,W,094223.265,V*3F
$GPGSV,2,1,06,01,67,198,15,17,78,259,28,06,44,234,59,18,50,315,43*76
$GPGSV,2,2,06,05,35,190,76,01,22,357,18*7C
$GPRMC,094226.265,V,3654.883,N,07702.454,W,43.7,0.91,220716,,E*41
$GPGGA,094227.265,3654.883,N,07702.454,W,0,04,,,M,,M,,*5E
$GPGLL,3654.883,N,07702.454,W,094228.265,V*35
$GPGSV,2,1,06,01,45,145,55,17,79,239,39,06,42,139,79,18,85,340,67*71
$GPGSV,2,2,06,05,43,308,23,01,11,055,63*73
$GPRMC,094231.265,V,3654.883,N,07702.452,W,13.2,1.01,220716,,E*49
$GPGGA,094232.265,3654.883,N,07702.452,W,0,04,,,M,,M,,*5C
$GPGLL,3654.883,N,07702.452,W,094233.265,V*39
$GPGSV,2,1,06,01,45,277,21,17,18,262,46,06,73,137,62,18,58,287,34*7B
$GPGSV,2,2,06,05,73,003,60,01,84,225,75*71
$GPRMC,094236.265,V,3654.883,N,07702.450,W,37.1,0.92,220716,,E*42
$GPGGA,094237.265,3654.883,N,07702.450,W,0,04,,,M,,M,,*5B
$GPGLL,3654.883,N,07702.450,W,094238.265,V*30
$GPGSV,2,1,06,01,56,095,67,17,41,008,63,06,20,093,65,18,49,271,30*73
$GPGSV,2,2,06,05,11,031,82,01,42,087,48*76
$GPRMC,094241.265,V,3654.884,N,07702.448,W,31.6,0.95,220716,,E*4A
$GPGGA,094242.265,3654.884,N,07702.448,W,0,04,,,M,,M,,*57
$GPGLL,3654.884,N,07702.448,W,094243.265,V*32
$GPGSV,2,1,06,01,32,174,17,17,86,112,74,06,50,225,24,18,61,128,39*7E
$GPGSV,2,2,06,05,70,307,27,01,19,130,32*76
$GPRMC,094246.265,V,3654.884,N,07702.446,W,72.5,0.94,220716,,E*46
$GPGGA,094247.265,3654.884,N,07702.446,W,0,04,,,M,,M,,*5C
$GPGLL,3654.884,N,07702.446,W,094248.265,V*37
$GPGSV,2,1,06,01,63,087,56,17,29,068,41,06,65,270,41,18,50,285,74*77
$GPGSV,2,2,06,05,89,234,57,01,58,281,42*7D
$GPRMC,094251.265,V,3654.884,N,07702.445,W,81.4,0.92,220716,,E*48
$GPGGA,094252.265,3654.884,N,07702.445,W,0,04,,,M,,M,,*5B
$GPGLL,3654.884,N,07702.445,W,094253.265,V*3E
$GPGSV,2,1,06,01,17,096,72,17,13,021,38,06,87,192,77,18,06,354,49*7E
$GPGSV,2,2,06,05,18,290,69,01,65,191,43*7B
$GPRMC,094256.265,V,3654.884,N,07702.443,W,89.5,0.85,220716,,E*46
$GPGGA,094257.265,3654.884,N,07702.443,W,0,04,,,M,,M,,*58
$GPGLL,3654.884,N,07702.443,W,094258.265,V*33
$GPGSV,2,1,06,01,09,163,42,17,08,276,71,06,25,115,50,18,56,248,47*7B
$GPGSV,2,2,06,05,25,016,25,01,34,006,45*7C
$GPRMC,094301.265,V,3654.885,N,07702.441,W,73.3,0.93,220716,,E*42
$GPGGA,094302.265,3654.885,N,07702.441,W,0,04,,,M,,M,,*5A
$GPGLL,3654.885,N,07702.441,W,094303.265,V*3F
$GPGSV,2,1,06,01,48,276,89,17,49,353,29,06,11,043,81,18,49,313,43*7C
$GPGSV,2,2,06,05,74,203,48,01,64,140,73*76
$GPRMC,094306.265,V,3654.886,N,07702.440,W,69.4,0.51,220716,,E*45
$GPGGA,094307.265,3654.886,N,07702.440,W,0,04,,,M,,M,,*5D
$GPGLL,3654.886,N,07702.440,W,094308.265,V*36
$GPGSV,2,1,06,01,82,122,30,17,52,285,75,06,33,184,24,18,78,129,21*7B
$GPGSV,2,2,06,05,85,020,21,01,84,075,71*7F
$GPRMC,094311.265,V,3654.887,N,07702.439,W,39.8,0.41,220716,,E*44
$GPGGA,094312.265,3654.887,N,07702.439,W,0,04,,,M,,M,,*56
$GPGLL,3654.887,N,07702.439,W,094313.265,V*33
$GPGSV,2,1,06,01,24,295,41,17,89,092,80,06,34,078,71,18,60,321,74*70
$GPGSV,2,2,06,05,85,066,68,01,31,227,57*7F
$GPRMC,094316.265,V,3654.889,N,07702.438,W,68.4,0.36,220716,,E*44
$GPGGA,094317.265,3654.889,N,07702.438,W,0,04,,,M,,M,,*5C
$GPGLL,3654.889,N,07702.438,W,094318.265,V*37
$GPGSV,2,1,06,01,68,300,70,17,17,180,77,06,42,167,51,18,31,262,36*72
$GPGSV,2,2,06,05,59,073,52,01,49,124,78*71
$GPRMC,094321.265,V,3654.890,N,07702.437,W,45.2,0.29,220716,,E*40
$GPGGA,094322.265,3654.890,N,07702.437,W,0,04,,,M,,M,,*5D
$GPGLL,3654.890,N,07702.437,W,094323.265,V*38
$GPGSV,2,1,06,01,78,335,83,17,09,283,50,06,84,101,78,18,87,260,36*7D
$GPGSV,2,2,06,05,11,190,28,01,10,336,62*7A
$GPRMC,094326.265,V,3654.892,N,07702.436,W,95.6,0.38,220716,,E*4D
$GPGGA,094327.265,3654.892,N,07702.436,W,0,04,,,M,,M,,*5B
$GPGLL,3654.892,N,07702.436,W,094328.265,V*30
$GPGSV,2,1,06,01,22,009,82,17,44,210,37,06,77,166,28,18,05,321,66*7E
$GPGSV,2,2,06,05,68,241,50,01,81,221,59*73
$GPRMC,094331.265,V,3654.894,N,07702.435,W,64.6,0.28,220716,,E*41
$GPGGA,094332.265,3654.894,N,07702.435,W,0,04,,,M,,M,,*5A
$GPGLL,3654.894,N,07702.435,W,094333.265,V*3F
$GPGSV,2,1,06,01,77,303,41,17,50,300,46,06,39,142,32,18,18,124,41*72
$GPGSV,2,2,06,05,66,085,65,01,79,091,89*72
$GPRMC,094336.265,V,3654.895,N,07702.434,W,43.9,0.29,220716,,E*4D
$GPGGA,094337.265,3654.895,N,07702.434,W,0,04,,,M,,M,,*5F
$GPGLL,3654.895,N,07702.434,W,094338.265,V*34
$GPGSV,2,1,06,01,69,253,62,17,61,092,31,06,61,304,74,18,84,086,39*7E
$GPGSV,2,2,06,05,64,046,53,01,58,031,47*71
$GPRMC,094341.265,V,3654.897,N,07702.434,W,75.3,0.26,220716,,E*4F
$GPGGA,094342.265,3654.897,N,07702.434,W,0,04,,,M,,M,,*5F
$GPGLL,3654.897,N,07702.434,W,094343.265,V*3A
$GPGSV,2,1,06,01,70,049,54,17,15,220,71,06,30,129,60,18,80,164,43*7E
$GPGSV,2,2,06,05,38,218,50,01,27,308,67*71
$GPRMC,094346.265,V,3654.898,N,07702.433,W,22.0,0.35,220716,,E*43
$GPGGA,094347.265,3654.898,N,07702.433,W,0,04,,,M,,M,,*52
$GPGLL,3654.898,N,07702.433,W,094348.265,V*39
$GPGSV,2,1,06,01,17,197,85,17,39,214,38,06,71,269,71,18,23,051,63*7B
$GPGSV,2,2,06,05,09,129,59,01,78,255,26*7D
$GPRMC,094351.265,V,3654.900,N,07702.432,W,31.5,0.26,220716,,E*41
$GPGGA,094352.265,3654.900,N,07702.432,W,0,04,,,M,,M,,*57
$GPGLL,3654.900,N,07702.432,W,094353.265,V*32
$GPGSV,2,1,06,01,87,322,50,17,33,047,27,06,14,121,39,18,56,208,67*7E
$GPGSV,2,2,06,05,39,335,18,01,66,183,25*70
$GPRMC,094356.265,V,3654.902,N,07702.431,W,35.0,0.34,220716,,E*45
$GPGGA,094357.265,3654.902,N,07702.431,W,0,04,,,M,,M,,*53
$GPGLL,3654.902,N,07702.431,W,094358.265,V*38
$GPGSV,2,1,06,01,51,297,71,17,33,061,46,06,67,133,71,18,79,348,67*79
$GPGSV,2,2,06,05,51,332,82,01,09,026,55*7A
$GPRMC,094401.265,V,3654.903,N,07702.430,W,90.4,0.24,220716,,E*4A
$GPGGA,094402.265,3654.903,N,07702.430,W,0,04,,,M,,M,,*54
$GPGLL,3654.903,N,07702.430,W,094403.265,V*31
$GPGSV,2,1,06,01,73,152,84,17,13,145,37,06,42,322,26,18,56,206,50*7F
$GPGSV,2,2,06,05,38,199,63,01,57,144,17*71
$GPRMC,094406.265,V,3654.904,N,07702.429,W,2.3,0.66,220716,,E*78
$GPGGA,094407.265,3654.904,N,07702.429,W,0,04,,,M,,M,,*5E
$GPGLL,3654.904,N,07702.429,W,094408.265,V*35
$GPGSV,2,1,06,01,17,118,89,17,52,195,15,06,48,257,56,18,11,321,29*71
$GPGSV,2,2,06,05,69,261,77,01,14,037,22*70
$GPRMC,094411.265,V,3654.905,N,07702.428,W,90.6,0.56,220716,,E*43
$GPGGA,094412.265,3654.905,N,07702.428,W,0,04,,,M,,M,,*5A
$GPGLL,3654.905,N,07702.428,W,094413.265,V*3F
$GPGSV,2,1,06,01,44,208,76,17,63,034,76,06,40,251,20,18,19,268,78*77
$GPGSV,2,2,06,05,08,227,69,01,64,043,75*7C
$GPRMC,094416.265,V,3654.906,N,07702.426,W,20.0,0.64,220716,,E*45
$GPGGA,094417.265,3654.906,N,07702.426,W,0,04,,,M,,M,,*52
$GPGLL,3654.906,N,07702.426,W,094418.265,V*39
$GPGSV,2,1,06,01,08,101,53,17,56,331,50,06,31,296,41,18,30,336,46*70
$GPGSV,2,2,06,05,84,325,47,01,74,211,20*73
$GPRMC,094421.265,V,3654.907,N,07702.425,W,73.5,0.58,220716,,E*4F
$GPGGA,094422.265,3654.907,N,07702.425,W,0,04,,,M,,M,,*56
$GPGLL,3654.907,N,07702.425,W,094423.265,V*33
$GPGSV,2,1,06,01,40,098,68,17,61,181,45,06,22,135,26,18,68,304,57*79
$GPGSV,2,2,06,05,31,216,47,01,34,309,79*7C
$GPRMC,094426.265,V,3654.908,N,07702.423,W,37.5,0.56,220716,,E*4F
$GPGGA,094427.265,3654.908,N,07702.423,W,0,04,,,M,,M,,*5A
$GPGLL,3654.908,N,07702.423,W,094428.265,V*31
$GPGSV,2,1,06,01,79,307,18,17,07,203,61,06,15,347,34,18,21,113,20*77
$GPGSV,2,2,06,05,08,168,32,01,67,133,54*7C
$GPRMC,094431.265,V,3654.910,N,07702.422,W,50.4,0.50,220716,,E*47
$GPGGA,094432.265,3654.910,N,07702.422,W,0,04,,,M,,M,,*56
$GPGLL,3654.910,N,07702.422,W,094433.265,V*33
$GPGSV,2,1,06,01,39,149,67,17,09,036,86,06,73,306,25,18,27,000,23*73
$GPGSV,2,2,06,05,49,350,78,01,07,355,43*7C
$GPRMC,094436.265,V,3654.911,N,07702.421,W,24.5,0.53,220716,,E*43
$GPGGA,094437.265,3654.911,N,07702.421,W,0,04,,,M,,M,,*51
$GPGLL,3654.911,N,07702.421,W,094438.265,V*3A
$GPGSV,2,1,06,01,07,190,76,17,24,144,26,06,56,212,34,18,43,165,69*76
$GPGSV,2,2,06,05,80,043,88,01,47,321,30*74
$GPRMC,094441.265,V,3654.912,N,07702.419,W,0.4,0.60,220716,,E*7C
$GPGGA,094442.265,3654.912,N,07702.419,W,0,04,,,M,,M,,*5B
$GPGLL,3654.912,N,07702.419,W,094443.265,V*3E
$GPGSV,2,1,06,01,28,215,26,17,31,329,24,06,45,168,74,18,50,069,64*75
$GPGSV,2,2,06,05,79,295,76,01,53,292,15*71
$GPRMC,094446.265,V,3654.913,N,07702.418,W,76.4,0.54,220716,,E*4D
$GPGGA,094447.265,3654.913,N,07702.418,W,0,04,,,M,,M,,*5E
$GPGLL,3654.913,N,07702.418,W,094448.265,V*35
$GPGSV,2,1,06,01,66,206,17,17,47,137,50,06,61,251,49,18,06,335,27*7F
$GPGSV,2,2,06,05,16,308,83,01,76,029,34*71
$GPRMC,094451.265,V,3654.915,N,07702.417,W,33.1,0.45,220716,,E*46
$GPGGA,094452.265,3654.915,N,07702.417,W,0,04,,,M,,M,,*53
$GPGLL,3654.915,N,07702.417,W,094453.265,V*36
$GPGSV,2,1,06,01,89,332,30,17,79,237,54,06,69,178,88,18,38,037,65*70
$GPGSV,2,2,06,05,76,352,54,01,06,124,68*70
$GPRMC,094456.265,V,3654.916,N,07702.415,W,10.9,0.44,220716,,E*48
$GPGGA,094457.265,3654.916,N,07702.415,W,0,04,,,M,,M,,*57
$GPGLL,3654.916,N,07702.415,W,094458.265,V*3C
$GPGSV,2,1,06,01,29,102,35,17,67,076,83,06,63,303,16,18,54,320,74*70
$GPGSV,2,2,06,05,81,246,50,01,69,122,48*75
$GPRMC,094501.265,V,3654.917,N,07702.414,W,46.0,0.43,220716,,E*46
$GPGGA,094502.265,3654.917,N,07702.414,W,0,04,,,M,,M,,*56
$GPGLL,3654.917,N,07702.414,W,094503.265,V*33
$GPGSV,2,1,06,01,68,228,29,17,05,179,66,06,49,301,84,18,31,094,29*74
$GPGSV,2,2,06,05,56,215,54,01,48,149,15*7B
$GPRMC,094506.265,V,3654.919,N,07702.413,W,1.2,0.53,220716,,E*78
$GPGGA,094507.265,3654.919,N,07702.413,W,0,04,,,M,,M,,*5A
$GPGLL,3654.919,N,07702.413,W,094508.265,V*31
$GPGSV,2,1,06,01,78,168,73,17,43,357,64,06,53,266,79,18,39,128,72*7A
$GPGSV,2,2,06,05,57,110,74,01,66,324,39*75
$GPRMC,094511.265,V,3654.920,N,07702.412,W,76.7,0.52,220716,,E*41
$GPGGA,094512.265,3654.920,N,07702.412,W,0,04,,,M,,M,,*55
$GPGLL,3654.920,N,07702.412,W,094513.265,V*30
$GPGSV,2,1,06,01,43,166,16,17,45,072,48,06,58,001,19,18,55,087,56*75
$GPGSV,2,2,06,05,85,321,69,01,49,187,70*7D
$GPRMC,094516.265,V,3654.921,N,07702.410,W,24.0,0.55,220716,,E*42
$GPGGA,094517.265,3654.921,N,07702.410,W,0,04,,,M,,M,,*53
$GPGLL,3654.921,N,07702.410,W,094518.265,V*38
$GPGSV,2,1,06,01,59,311,17,17,46,098,19,06,73,013,42,18,54,049,28*70
$GPGSV,2,2,06,05,88,312,18,01,09,326,81*75
$GPRMC,094521.265,V,3654.922,N,07702.409,W,46.5,0.49,220716,,E*41
$GPGGA,094522.265,3654.922,N,07702.409,W,0,04,,,M,,M,,*5E
$GPGLL,3654.922,N,07702.409,W,094523.265,V*3B
$GPGSV,2,1,06,01,34,239,35,17,50,354,22,06,64,050,16,18,19,022,49*7F
$GPGSV,2,2,06,05,19,091,70,01,35,263,35*7B
$GPRMC,094526.265,V,3654.923,N,07702.408,W,35.0,0.59,220716,,E*46
$GPGGA,094527.265,3654.923,N,07702.408,W,0,04,,,M,,M,,*5B
$GPGLL,3654.923,N,07702.408,W,094528.265,V*30
$GPGSV,2,1,06,01,59,005,74,17,28,039,86,06,38,070,84,18,76,221,66*70
$GPGSV,2,2,06,05,81,191,44,01,70,172,80*70
$GPRMC,094531.265,V,3654.925,N,07702.406,W,30.3,0.51,220716,,E*46
$GPGGA,094532.265,3654.925,N,07702.406,W,0,04,,,M,,M,,*57
$GPGLL,3654.925,N,07702.406,W,094533.265,V*32
$GPGSV,2,1,06,01,35,336,64,17,60,281,76,06,32,001,48,18,53,302,43*76
$GPGSV,2,2,06,05,52,148,70,01,48,020,16*7F
$GPRMC,094536.265,V,3654.926,N,07702.405,W,61.6,0.44,220716,,E*44
$GPGGA,094537.265,3654.926,N,07702.405,W,0,04,,,M,,M,,*52
$GPGLL,3654.926,N,07702.405,W,094538.265,V*39
$GPGSV,2,1,06,01,33,101,17,17,62,241,30,06,33,042,59,18,26,144,67*7C
$GPGSV,2,2,06,05,71,220,47,01,81,247,48*7A
$GPRMC,094541.265,V,3654.927,N,07702.404,W,8.1,0.46,220716,,E*7E
$GPGGA,094542.265,3654.927,N,07702.404,W,0,04,,,M,,M,,*50
$GPGLL,3654.927,N,07702.404,W,094543.265,V*35
$GPGSV,2,1,06,01,18,144,87,17,51,052,57,06,54,346,24,18,28,323,22*7C
$GPGSV,2,2,06,05,35,328,25,01,11,065,40*74
$GPRMC,094546.265,V,3654.929,N,07702.403,W,57.5,0.40,220716,,E*48
$GPGGA,094547.265,3654.929,N,07702.403,W,0,04,,,M,,M,,*5C
$GPGLL,3654.929,N,07702.403,W,094548.265,V*37
$GPGSV,2,1,06,01,28,175,45,17,14,074,63,06,27,092,33,18,47,146,51*75
$GPGSV,2,2,06,05,29,305,60,01,37,289,83*7C
$GPRMC,094551.265,V,3654.930,N,07702.402,W,92.1,0.51,220716,,E*4A
$GPGGA,094552.265,3654.930,N,07702.402,W,0,04,,,M,,M,,*51
$GPGLL,3654.930,N,07702.402,W,094553.265,V*34
$GPGSV,2,1,06,01,64,225,72,17,54,111,85,06,78,270,56,18,08,075,80*70
$GPGSV,2,2,06,05,52,302,62,01,87,240,28*7A
$GPRMC,094556.265,V,3654.931,N,07702.400,W,6.3,0.49,220716,,E*78
$GPGGA,094557.265,3654.931,N,07702.400,W,0,04,,,M,,M,,*57
$GPGLL,3654.931,N,07702.400,W,094558.265,V*3C
$GPGSV,2,1,06,01,12,233,62,17,61,027,89,06,09,002,81,18,87,205,67*79
$GPGSV,2,2,06,05,10,221,25,01,14,089,29*73
$GPRMC,094601.265,V,3654.933,N,07702.399,W,22.4,0.42,220716,,E*46
$GPGGA,094602.265,3654.933,N,07702.399,W,0,04,,,M,,M,,*51
$GPGLL,3654.933,N,07702.399,W,094603.265,V*34
$GPGSV,2,1,06,01,83,181,28,17,75,065,53,06,17,007,21,18,63,053,50*7E
$GPGSV,2,2,06,05,68,154,44,01,36,351,20*75
$GPRMC,094606.265,V,3654.934,N,07702.398,W,62.4,0.32,220716,,E*44
$GPGGA,094607.265,3654.934,N,07702.398,W,0,04,,,M,,M,,*52
$GPGLL,3654.934,N,07702.398,W,094608.265,V*39
$GPGSV,2,1,06,01,72,106,81,17,30,350,30,06,67,294,48,18,49,153,28*7B
$GPGSV,2,2,06,05,75,267,41,01,59,226,54*74
$GPRMC,094611.265,V,3654.936,N,07702.398,W,18.3,0.30,220716,,E*48
$GPGGA,094612.265,3654.936,N,07702.398,W,0,04,,,M,,M,,*54
$GPGLL,3654.936,N,07702.398,W,094613.265,V*31
$GPGSV,2,1,06,01,41,146,70,17,49,238,20,06,33,329,26,18,54,233,21*7F
$GPGSV,2,2,06,05,28,224,35,01,08,358,30*76
$GPRMC,094616.265,V,3654.938,N,07702.397,W,41.6,0.29,220716,,E*4F
$GPGGA,094617.265,3654.938,N,07702.397,W,0,04,,,M,,M,,*50
$GPGLL,3654.938,N,07702.397,W,094618.265,V*3B
$GPGSV,2,1,06,01,35,203,39,17,33,347,73,06,52,078,19,18,51,091,36*74
$GPGSV,2,2,06,05,17,050,76,01,23,238,15*75
$GPRMC,094621.265,V,3654.939,N,07702.396,W,75.4,0.26,220716,,E*41
$GPGGA,094622.265,3654.939,N,07702.396,W,0,04,,,M,,M,,*56
$GPGLL,3654.939,N,07702.396,W,094623.265,V*33
$GPGSV,2,1,06,01,63,073,67,17,84,028,60,06,20,291,76,18,60,198,31*79
$GPGSV,2,2,06,05,13,010,86,01,43,234,41*71
$GPRMC,094626.265,V,3654.941,N,07702.395,W,64.1,0.36,220716,,E*4E
$GPGGA,094627.265,3654.941,N,07702.395,W,0,04,,,M,,M,,*5F
$GPGLL,3654.941,N,07702.395,W,094628.265,V*34
$GPGSV,2,1,06,01,39,258,76,17,49,122,26,06,20,181,25,18,45,314,30*71
$GPGSV,2,2,06,05,64,058,52,01,25,016,86*7D
$GPRMC,094631.265,V,3654.942,N,07702.394,W,2.3,0.39,220716,,E*77
$GPGGA,094632.265,3654.942,N,07702.394,W,0,04,,,M,,M,,*59
$GPGLL,3654.942,N,07702.394,W,094633.265,V*3C
$GPGSV,2,1,06,01,65,201,52,17,73,087,59,06,41,352,63,18,33,283,40*7D
$GPGSV,2,2,06,05,49,187,43,01,17,005,49*71
$GPRMC,094636.265,V,3654.944,N,07702.393,W,90.4,0.49,220716,,E*4A
$GPGGA,094637.265,3654.944,N,07702.393,W,0,04,,,M,,M,,*5D
$GPGLL,3654.944,N,07702.393,W,094638.265,V*36
$GPGSV,2,1,06,01,28,151,37,17,60,187,36,06,40,234,86,18,14,020,29*71
$GPGSV,2,2,06,05,13,115,34,01,55,069,63*71
$GPRMC,094641.265,V,3654.945,N,07702.391,W,15.3,0.57,220716,,E*4C
$GPGGA,094642.265,3654.945,N,07702.391,W,0,04,,,M,,M,,*5C
$GPGLL,3654.945,N,07702.391,W,094643.265,V*39
$GPGSV,2,1,06,01,85,321,17,17,81,277,66,06,64,096,72,18,10,216,26*7C
$GPGSV,2,2,06,05,37,089,36,01,46,131,47*79
$GPRMC,094646.265,V,3654.946,N,07702.390,W,24.8,0.51,220716,,E*46
$GPGGA,094647.265,3654.946,N,07702.390,W,0,04,,,M,,M,,*5B
$GPGLL,3654.946,N,07702.390,W,094648.265,V*30
$GPGSV,2,1,06,01,47,328,65,17,71,126,55,06,40,164,29,18,44,144,86*7D
$GPGSV,2,2,06,05,50,233,67,01,58,260,71*72
$GPRMC,094651.265,V,3654.947,N,07702.389,W,46.6,0.46,220716,,E*45
$GPGGA,094652.265,3654.947,N,07702.389,W,0,04,,,M,,M,,*56
$GPGLL,3654.947,N,07702.389,W,094653.265,V*33
$GPGSV,2,1,06,01,17,203,50,17,50,078,33,06,68,315,54,18,29,226,53*7F
$GPGSV,2,2,06,05,43,301,63,01,86,139,18*77
$GPRMC,094656.265,V,3654.948,N,07702.388,W,0.9,0.56,220716,,E*70
$GPGGA,094657.265,3654.948,N,07702.388,W,0,04,,,M,,M,,*5D
$GPGLL,3654.948,N,07702.388,W,094658.265,V*36
$GPGSV,2,1,06,01,52,125,20,17,65,248,67,06,49,310,53,18,55,226,20*76
$GPGSV,2,2,06,05,76,150,26,01,09,140,74*75
$GPRMC,094701.265,V,3654.949,N,07702.386,W,99.7,0.61,220716,,E*46
$GPGGA,094702.265,3654.949,N,07702.386,W,0,04,,,M,,M,,*53
$GPGLL,3654.949,N,07702.386,W,094703.265,V*36
$GPGSV,2,1,06,01,80,156,78,17,37,322,72,06,43,001,20,18,23,226,36*75
$GPGSV,2,2,06,05,49,270,51,01,82,045,36*79
$GPRMC,094706.265,V,3654.950,N,07702.385,W,50.8,0.61,220716,,E*40
$GPGGA,094707.265,3654.950,N,07702.385,W,0,04,,,M,,M,,*5D
$GPGLL,3654.950,N,07702.385,W,094708.265,V*36
$GPGSV,2,1,06,01,82,164,87,17,19,208,19,06,56,285,81,18,83,162,33*73
$GPGSV,2,2,06,05,71,176,78,01,22,247,87*7C
$GPRMC,094711.265,V,3654.951,N,07702.383,W,23.9,0.67,220716,,E*42
$GPGGA,094712.265,3654.951,N,07702.383,W,0,04,,,M,,M,,*5E
$GPGLL,3654.951,N,07702.383,W,094713.265,V*3B
$GPGSV,2,1,06,01,18,273,86,17,75,353,51,06,75,343,67,18,74,047,49*7C
$GPGSV,2,2,06,05,19,312,65,01,27,067,29*7F
$GPRMC,094716.265,V,3654.952,N,07702.381,W,28.4,0.78,220716,,E*4C
$GPGGA,094717.265,3654.952,N,07702.381,W,0,04,,,M,,M,,*5A
$GPGLL,3654.952,N,07702.381,W,094718.265,V*31
$GPGSV,2,1,06,01,76,267,23,17,70,240,40,06,12,045,54,18,07,151,71*75
$GPGSV,2,2,06,05,24,016,59,01,67,247,18*7F
$GPRMC,094721.265,V,3654.952,N,07702.380,W,25.8,0.81,220716,,E*4E
$GPGGA,094722.265,3654.952,N,07702.380,W,0,04,,,M,,M,,*5D
$GPGLL,3654.952,N,07702.380,W,094723.265,V*38
$GPGSV,2,1,06,01,66,045,35,17,57,266,20,06,21,180,87,18,87,050,64*7C
$GPGSV,2,2,06,05,30,321,22,01,33,248,58*7B
$GPRMC,094726.265,V,3654.953,N,07702.378,W,14.3,0.83,220716,,E*44
$GPGGA,094727.265,3654.953,N,07702.378,W,0,04,,,M,,M,,*5E
$GPGLL,3654.953,N,07702.378,W,094728.265,V*35
$GPGSV,2,1,06,01,57,131,83,17,63,027,51,06,06,007,59,18,46,275,84*79
$GPGSV,2,2,06,05,16,037,51,01,22,112,16*79
$GPRMC,094731.265,V,3654.953,N,07702.376,W,22.3,0.94,220716,,E*4F
$GPGGA,094732.265,3654.953,N,07702.376,W,0,04,,,M,,M,,*54
$GPGLL,3654.953,N,07702.376,W,094733.265,V*31
$GPGSV,2,1,06,01,87,356,74,17,58,084,58,06,87,120,54,18,06,215,56*7A
$GPGSV,2,2,06,05,74,108,69,01,37,286,63*73
$GPRMC,094736.265,V,3654.953,N,07702.374,W,82.5,0.89,220716,,E*4A
$GPGGA,094737.265,3654.953,N,07702.374,W,0,04,,,M,,M,,*53
$GPGLL,3654.953,N,07702.374,W,094738.265,V*38
$GPGSV,2,1,06,01,28,167,74,17,42,342,43,06,89,293,45,18,78,111,78*70
$GPGSV,2,2,06,05,12,029,23,01,72,298,82*7E
