$GPRMC,215607.555,V,4154.930,N,07602.495,W,60.3,1.01,080816,,E*46
$GPGGA,215608.555,4154.930,N,07602.495,W,0,00,,,M,,M,,*59
$GPGLL,4154.930,N,07602.495,W,215609.555,V*38
$GPGSA,A,2,14,06,15,09,19,12,,,,,,,0.5,0.3,0.5*35
$GPGSV,2,1,06,14,89,048,41,06,45,003,83,15,46,171,77,09,69,091,60*77
$GPGSV,2,2,06,19,14,209,85,12,85,205,25*7A
$GPRMC,215613.555,V,4154.929,N,07602.494,W,51.9,1.11,080816,,E*43
$GPGGA,215614.555,4154.929,N,07602.494,W,0,04,0.3,,M,,M,,*74
$GPGLL,4154.929,N,07602.494,W,215615.555,V*3C
$GPGSA,A,3,14,06,15,09,19,12,,,,,,,0.3,0.7,0.4*37
$GPGSV,2,1,06,14,12,130,81,06,19,029,64,15,22,344,73,09,61,238,78*7D
$GPGSV,2,2,06,19,37,012,68,12,56,060,66*78
$GPRMC,215619.555,V,4154.929,N,07602.492,W,60.5,1.21,080816,,E*42
$GPGGA,215620.555,4154.929,N,07602.492,W,0,04,0.7,,M,,M,,*71
$GPGLL,4154.929,N,07602.492,W,215621.555,V*3D
$GPGSA,A,2,14,06,15,09,19,12,,,,,,,0.8,0.7,0.7*3E
$GPGSV,2,1,06,14,22,041,78,06,41,240,55,15,74,280,79,09,25,129,55*71
$GPGSV,2,2,06,19,32,293,80,12,23,345,53*70
$GPRMC,215625.555,V,4154.928,N,07602.490,W,12.8,1.20,080816,,E*47
$GPGGA,215626.555,4154.928,N,07602.490,W,0,04,0.7,,M,,M,,*74
$GPGLL,4154.928,N,07602.490,W,215627.555,V*38
$GPGSA,A,2,14,06,15,09,19,12,,,,,,,0.3,1.0,1.0*35
$GPGSV,2,1,06,14,50,314,29,06,60,060,16,15,37,298,76,09,62,217,69*74
$GPGSV,2,2,06,19,39,357,36,12,06,098,63*78
$GPRMC,215631.555,V,4154.928,N,07602.489,W,90.4,1.22,080816,,E*4E
$GPGGA,215632.555,4154.928,N,07602.489,W,0,04,1.0,,M,,M,,*7F
$GPGLL,4154.928,N,07602.489,W,215633.555,V*35
$GPGSA,A,2,14,06,15,09,19,12,,,,,,,0.8,0.5,0.4*3F
$GPGSV,2,1,06,14,49,052,39,06,82,229,16,15,19,241,83,09,43,312,73*71
$GPGSV,2,2,06,19,77,294,67,12,28,219,59*76
$GPRMC,215637.555,V,4154.927,N,07602.487,W,46.0,1.29,080816,,E*4D
$GPGGA,215638.555,4154.927,N,07602.487,W,0,04,0.5,,M,,M,,*70
$GPGLL,4154.927,N,07602.487,W,215639.555,V*3E
$GPGSA,A,3,14,06,15,09,19,12,,,,,,,0.5,0.6,0.0*34
$GPGSV,2,1,06,14,77,118,45,06,77,307,26,15,84,015,18,09,85,056,55*74
$GPGSV,2,2,06,19,85,049,30,12,05,134,38*7F
$GPRMC,215643.555,V,4154.926,N,07602.486,W,90.9,1.44,080816,,E*47
$GPGGA,215644.555,4154.926,N,07602.486,W,0,04,0.6,,M,,M,,*78
$GPGLL,4154.926,N,07602.486,W,215645.555,V*35
$GPGSA,A,2,14,06,15,09,19,12,,,,,,,0.6,0.6,0.6*30
$GPGSV,2,1,06,14,50,304,75,06,32,225,22,15,87,090,62,09,66,255,36*73
$GPGSV,2,2,06,19,46,335,73,12,12,135,50*76
$GPRMC,215649.555,V,4154.924,N,07602.484,W,78.9,1.50,080816,,E*4E
$GPGGA,215650.555,4154.924,N,07602.484,W,0,04,0.6,,M,,M,,*7D
$GPGLL,4154.924,N,07602.484,W,215651.555,V*30
$GPGSA,A,3,14,06,15,09,19,12,,,,,,,0.0,0.4,0.5*36
$GPGSV,2,1,06,14,37,281,45,06,26,143,20,15,46,328,31,09,87,168,22*75
$GPGSV,2,2,06,19,08,200,87,12,83,066,85*77
$GPRMC,215655.555,V,4154.923,N,07602.483,W,11.6,1.46,080816,,E*44
$GPGGA,215656.555,4154.923,N,07602.483,W,0,04,0.4,,M,,M,,*79
$GPGLL,4154.923,N,07602.483,W,215657.555,V*36
$GPGSA,A,3,14,06,15,09,19,12,,,,,,,0.4,0.8,0.8*33
$GPGSV,2,1,06,14,86,045,80,06,52,276,56,15,19,045,61,09,08,232,37*73
$GPGSV,2,2,06,19,53,105,49,12,82,033,26*75
$GPRMC,215701.555,V,4154.922,N,07602.481,W,36.5,1.38,080816,,E*48
$GPGGA,215702.555,4154.922,N,07602.481,W,0,04,0.8,,M,,M,,*76
$GPGLL,4154.922,N,07602.481,W,215703.555,V*35
$GPGSA,A,2,14,06,15,09,19,12,,,,,,,0.1,0.7,0.6*36
$GPGSV,2,1,06,14,71,283,80,06,07,014,65,15,10,309,57,09,11,108,78*7B
$GPGSV,2,2,06,19,71,012,29,12,21,024,25*78
$GPRMC,215707.555,V,4154.921,N,07602.480,W,31.6,1.36,080816,,E*46
$GPGGA,215708.555,4154.921,N,07602.480,W,0,04,0.7,,M,,M,,*71
$GPGLL,4154.921,N,07602.480,W,215709.555,V*3D
$GPGSA,A,3,14,06,15,09,19,12,,,,,,,0.6,0.7,0.5*33
$GPGSV,2,1,06,14,77,074,49,06,76,175,86,15,26,016,25,09,22,253,53*76
$GPGSV,2,2,06,19,37,095,42,12,23,228,38*78
$GPRMC,215713.555,V,4154.920,N,07602.478,W,53.6,1.37,080816,,E*40
$GPGGA,215714.555,4154.920,N,07602.478,W,0,04,0.7,,M,,M,,*7A
$GPGLL,4154.920,N,07602.478,W,215715.555,V*36
$GPGSA,A,3,14,06,15,09,19,12,,,,,,,0.2,0.9,0.3*3F
$GPGSV,2,1,06,14,68,244,74,06,40,149,78,15,36,208,15,09,68,151,36*7F
$GPGSV,2,2,06,19,87,020,31,12,30,309,25*75
$GPRMC,215719.555,V,4154.919,N,07602.477,W,14.7,1.35,080816,,E*4F
$GPGGA,215720.555,4154.919,N,07602.477,W,0,04,0.9,,M,,M,,*76
$GPGLL,4154.919,N,07602.477,W,215721.555,V*34
$GPGSA,A,2,14,06,15,09,19,12,,,,,,,0.8,0.3,0.6*3B
$GPGSV,2,1,06,14,06,250,19,06,60,051,58,15,08,295,47,09,89,101,33*70
$GPGSV,2,2,06,19,22,233,41,12,15,137,46*70
$GPRMC,215725.555,V,4154.918,N,07602.475,W,82.2,1.32,080816,,E*4E
$GPGGA,215726.555,4154.918,N,07602.475,W,0,04,0.3,,M,,M,,*79
$GPGLL,4154.918,N,07602.475,W,215727.555,V*31
$GPGSA,A,3,14,06,15,09,19,12,,,,,,,0.8,0.7,0.3*3B
$GPGSV,2,1,06,14,33,101,57,06,16,306,32,15,11,342,27,09,79,309,33*77
$GPGSV,2,2,06,19,41,140,36,12,57,103,33*71
$GPRMC,215731.555,V,4154.918,N,07602.474,W,13.3,1.25,080816,,E*45
$GPGGA,215732.555,4154.918,N,07602.474,W,0,04,0.7,,M,,M,,*79
$GPGLL,4154.918,N,07602.474,W,215733.555,V*35
$GPGSA,A,2,14,06,15,09,19,12,,,,,,,1.0,0.7,0.8*38
$GPGSV,2,1,06,14,56,042,68,06,19,139,17,15,31,238,66,09,58,095,75*74
$GPGSV,2,2,06,19,58,230,60,12,17,220,72*7D
$GPRMC,215737.555,V,4154.917,N,07602.472,W,87.5,1.36,080816,,E*43
$GPGGA,215738.555,4154.917,N,07602.472,W,0,04,0.7,,M,,M,,*7A
$GPGLL,4154.917,N,07602.472,W,215739.555,V*36
$GPGSA,A,2,14,06,15,09,19,12,,,,,,,0.3,0.8,0.3*3E
$GPGSV,2,1,06,14,82,112,37,06,57,003,72,15,62,077,76,09,76,108,80*7F
$GPGSV,2,2,06,19,09,227,17,12,37,254,20*79
$GPRMC,215743.555,V,4154.916,N,07602.471,W,75.0,1.47,080816,,E*4C
$GPGGA,215744.555,4154.916,N,07602.471,W,0,04,0.8,,M,,M,,*7C
$GPGLL,4154.916,N,07602.471,W,215745.555,V*3F
$GPGSA,A,3,14,06,15,09,19,12,,,,,,,0.3,0.4,0.4*34
$GPGSV,2,1,06,14,81,058,39,06,81,336,35,15,23,029,63,09,16,167,85*70
$GPGSV,2,2,06,19,26,316,74,12,11,191,60*78
$GPRMC,215749.555,V,4154.914,N,07602.470,W,43.3,1.61,080816,,E*47
$GPGGA,215750.555,4154.914,N,07602.470,W,0,04,0.4,,M,,M,,*76
$GPGLL,4154.914,N,07602.470,W,215751.555,V*39
$GPGSA,A,3,14,06,15,09,19,12,,,,,,,0.8,0.5,0.7*3D
$GPGSV,2,1,06,14,59,178,80,06,88,020,53,15,20,102,71,09,24,071,68*75
$GPGSV,2,2,06,19,73,139,19,12,78,303,77*7C
$GPRMC,215755.555,V,4154.913,N,07602.469,W,80.3,1.64,080816,,E*4F
$GPGGA,215756.555,4154.913,N,07602.469,W,0,04,0.5,,M,,M,,*7E
$GPGLL,4154.913,N,07602.469,W,215757.555,V*30
$GPGSA,A,2,14,06,15,09,19,12,,,,,,,0.8,0.8,0.2*34
$GPGSV,2,1,06,14,55,072,83,06,53,248,86,15,14,245,76,09,86,185,82*75
$GPGSV,2,2,06,19,26,105,78,12,64,122,58*75
$GPRMC,215801.555,V,4154.911,N,07602.468,W,35.7,1.53,080816,,E*4C
$GPGGA,215802.555,4154.911,N,07602.468,W,0,04,0.8,,M,,M,,*7E
$GPGLL,4154.911,N,07602.468,W,215803.555,V*3D
$GPGSA,A,3,14,06,15,09,19,12,,,,,,,0.4,0.0,0.3*30
$GPGSV,2,1,06,14,34,029,75,06,72,030,24,15,65,333,24,09,48,304,23*70
$GPGSV,2,2,06,19,80,287,21,12,79,356,25*7B
$GPRMC,215807.555,V,4154.910,N,07602.467,W,35.1,1.61,080816,,E*43
$GPGGA,215808.555,4154.910,N,07602.467,W,0,04,0.0,,M,,M,,*72
$GPGLL,4154.910,N,07602.467,W,215809.555,V*39
$GPGSA,A,2,14,06,15,09,19,12,,,,,,,0.9,0.5,0.9*33
$GPGSV,2,1,06,14,51,175,81,06,15,257,28,15,23,283,77,09,85,023,69*79
$GPGSV,2,2,06,19,17,006,52,12,21,168,42*79
$GPRMC,215813.555,V,4154.908,N,07602.466,W,0.6,1.79,080816,,E*76
$GPGGA,215814.555,4154.908,N,07602.466,W,0,04,0.5,,M,,M,,*72
$GPGLL,4154.908,N,07602.466,W,215815.555,V*3C
$GPGSA,A,2,14,06,15,09,19,12,,,,,,,0.5,0.7,0.4*30
$GPGSV,2,1,06,14,33,225,40,06,78,310,41,15,66,062,53,09,77,029,46*70
$GPGSV,2,2,06,19,54,189,77,12,28,125,79*77
$GPRMC,215819.555,V,4154.906,N,07602.465,W,38.6,1.81,080816,,E*4D
$GPGGA,215820.555,4154.906,N,07602.465,W,0,04,0.7,,M,,M,,*7A
$GPGLL,4154.906,N,07602.465,W,215821.555,V*36
$GPGSA,A,2,14,06,15,09,19,12,,,,,,,0.6,0.8,0.8*30
$GPGSV,2,1,06,14,15,258,48,06,87,215,38,15,14,245,76,09,09,252,80*74
$GPGSV,2,2,06,19,82,037,15,12,83,008,36*78
$GPRMC,215825.555,V,4154.905,N,07602.465,W,3.5,1.81,080816,,E*7A
$GPGGA,215826.555,4154.905,N,07602.465,W,0,04,0.8,,M,,M,,*70
$GPGLL,4154.905,N,07602.465,W,215827.555,V*33
$GPGSA,A,2,14,06,15,09,19,12,,,,,,,0.4,0.6,0.4*30
$GPGSV,2,1,06,14,70,065,17,06,88,165,66,15,56,044,84,09,46,262,77*79
$GPGSV,2,2,06,19,66,032,49,12,51,009,44*75
$GPRMC,215831.555,V,4154.903,N,07602.465,W,93.6,1.90,080816,,E*43
$GPGGA,215832.555,4154.903,N,07602.465,W,0,04,0.6,,M,,M,,*7D
$GPGLL,4154.903,N,07602.465,W,215833.555,V*30
$GPGSA,A,2,14,06,15,09,19,12,,,,,,,0.9,0.8,0.5*32
$GPGSV,2,1,06,14,12,337,89,06,36,170,64,15,50,022,82,09,84,213,70*72
$GPGSV,2,2,06,19,46,151,59,12,18,000,75*74
$GPRMC,215837.555,V,4154.901,N,07602.464,W,88.0,1.83,080816,,E*48
$GPGGA,215838.555,4154.901,N,07602.464,W,0,04,0.8,,M,,M,,*7A
$GPGLL,4154.901,N,07602.464,W,215839.555,V*39
$GPGSA,A,3,14,06,15,09,19,12,,,,,,,0.5,0.6,0.1*35
$GPGSV,2,1,06,14,20,260,30,06,48,277,57,15,83,106,82,09,70,176,28*70
$GPGSV,2,2,06,19,07,278,59,12,27,293,81*76
$GPRMC,215843.555,V,4154.899,N,07602.464,W,70.4,1.90,080816,,E*4A
$GPGGA,215844.555,4154.899,N,07602.464,W,0,04,0.6,,M,,M,,*7F
$GPGLL,4154.899,N,07602.464,W,215845.555,V*32
$GPGSA,A,3,14,06,15,09,19,12,,,,,,,0.4,0.4,0.7*30
$GPGSV,2,1,06,14,78,106,75,06,69,286,71,15,31,201,36,09,80,129,69*74
$GPGSV,2,2,06,19,06,036,67,12,66,273,29*7B
$GPRMC,215849.555,V,4154.898,N,07602.463,W,24.5,1.85,080816,,E*42
$GPGGA,215850.555,4154.898,N,07602.463,W,0,04,0.4,,M,,M,,*7E
$GPGLL,4154.898,N,07602.463,W,215851.555,V*31
$GPGSA,A,2,14,06,15,09,19,12,,,,,,,0.4,0.6,0.1*35
$GPGSV,2,1,06,14,71,257,84,06,48,239,48,15,33,042,56,09,76,210,49*7A
$GPGSV,2,2,06,19,71,128,87,12,61,270,67*75
$GPRMC,215855.555,V,4154.896,N,07602.463,W,30.6,1.93,080816,,E*40
$GPGGA,215856.555,4154.896,N,07602.463,W,0,04,0.6,,M,,M,,*74
$GPGLL,4154.896,N,07602.463,W,215857.555,V*39
$GPGSA,A,3,14,06,15,09,19,12,,,,,,,0.9,0.2,1.0*3D
$GPGSV,2,1,06,14,46,154,36,06,59,192,41,15,46,205,48,09,10,159,47*70
$GPGSV,2,2,06,19,34,166,61,12,09,275,80*74
$GPRMC,215901.555,V,4154.894,N,07602.463,W,57.8,2.04,080816,,E*40
$GPGGA,215902.555,4154.894,N,07602.463,W,0,04,0.2,,M,,M,,*72
$GPGLL,4154.894,N,07602.463,W,215903.555,V*3B
$GPGSA,A,3,14,06,15,09,19,12,,,,,,,0.4,0.7,1.0*35
$GPGSV,2,1,06,14,44,244,34,06,26,303,47,15,68,216,52,09,72,036,76*7D
$GPGSV,2,2,06,19,63,068,69,12,33,331,15*75
$GPRMC,215907.555,V,4154.892,N,07602.463,W,59.5,1.96,080816,,E*4B
$GPGGA,215908.555,4154.892,N,07602.463,W,0,04,0.7,,M,,M,,*7B
$GPGLL,4154.892,N,07602.463,W,215909.555,V*37
$GPGSA,A,2,14,06,15,09,19,12,,,,,,,0.5,0.4,0.9*3E
$GPGSV,2,1,06,14,36,279,64,06,40,078,81,15,56,247,49,09,12,085,60*7C
$GPGSV,2,2,06,19,13,314,60,12,71,133,21*72
$GPRMC,215913.555,V,4154.890,N,07602.463,W,54.7,1.87,080816,,E*43
$GPGGA,215914.555,4154.890,N,07602.463,W,0,04,0.4,,M,,M,,*77
$GPGLL,4154.890,N,07602.463,W,215915.555,V*38
$GPGSA,A,2,14,06,15,09,19,12,,,,,,,0.6,0.6,0.3*35
$GPGSV,2,1,06,14,19,042,57,06,23,240,38,15,40,212,38,09,79,114,21*75
$GPGSV,2,2,06,19,52,181,22,12,62,098,69*71
$GPRMC,215919.555,V,4154.889,N,07602.462,W,23.5,1.78,080816,,E*42
$GPGGA,215920.555,4154.889,N,07602.462,W,0,04,0.6,,M,,M,,*7B
$GPGLL,4154.889,N,07602.462,W,215921.555,V*36
$GPGSA,A,2,14,06,15,09,19,12,,,,,,,0.2,0.9,0.2*3F
$GPGSV,2,1,06,14,68,338,62,06,54,147,40,15,52,336,86,09,46,129,81*79
$GPGSV,2,2,06,19,53,242,42,12,50,213,38*7E
$GPRMC,215925.555,V,4154.887,N,07602.461,W,65.8,1.71,080816,,E*46
$GPGGA,215926.555,4154.887,N,07602.461,W,0,04,0.9,,M,,M,,*7F
$GPGLL,4154.887,N,07602.461,W,215927.555,V*3D
$GPGSA,A,3,14,06,15,09,19,12,,,,,,,0.3,0.3,0.1*36
$GPGSV,2,1,06,14,10,007,87,06,06,263,58,15,76,130,32,09,60,222,52*76
$GPGSV,2,2,06,19,85,233,23,12,61,013,22*7F
$GPRMC,215931.555,V,4154.886,N,07602.461,W,8.1,1.64,080816,,E*74
$GPGGA,215932.555,4154.886,N,07602.461,W,0,04,0.3,,M,,M,,*71
$GPGLL,4154.886,N,07602.461,W,215933.555,V*39
$GPGSA,A,3,14,06,15,09,19,12,,,,,,,0.2,0.1,0.8*3C
$GPGSV,2,1,06,14,75,026,55,06,65,342,34,15,07,011,77,09,75,356,19*78
$GPGSV,2,2,06,19,88,208,71,12,46,123,54*7B
$GPRMC,215937.555,V,4154.884,N,07602.460,W,41.4,1.64,080816,,E*49
$GPGGA,215938.555,4154.884,N,07602.460,W,0,04,0.1,,M,,M,,*7A
$GPGLL,4154.884,N,07602.460,W,215939.555,V*30
$GPGSA,A,2,14,06,15,09,19,12,,,,,,,0.1,0.9,0.5*3B
$GPGSV,2,1,06,14,10,189,38,06,30,242,27,15,43,254,67,09,36,192,56*73
$GPGSV,2,2,06,19,53,334,53,12,87,189,84*73
$GPRMC,215943.555,V,4154.883,N,07602.458,W,54.0,1.40,080816,,E*40
$GPGGA,215944.555,4154.883,N,07602.458,W,0,04,0.9,,M,,M,,*75
$GPGLL,4154.883,N,07602.458,W,215945.555,V*37
$GPGSA,A,3,14,06,15,09,19,12,,,,,,,0.9,0.4,0.8*32
$GPGSV,2,1,06,14,32,008,80,06,65,033,38,15,34,340,85,09,63,237,23*74
$GPGSV,2,2,06,19,74,172,65,12,64,183,42*7E
$GPRMC,215949.555,V,4154.882,N,07602.456,W,95.7,1.32,080816,,E*4A
$GPGGA,215950.555,4154.882,N,07602.456,W,0,04,0.4,,M,,M,,*72
$GPGLL,4154.882,N,07602.456,W,215951.555,V*3D
$GPGSA,A,3,14,06,15,09,19,12,,,,,,,0.3,0.5,0.7*36
$GPGSV,2,1,06,14,19,136,21,06,27,328,34,15,37,106,58,09,84,162,88*71
$GPGSV,2,2,06,19,37,261,44,12,25,304,74*76
$GPRMC,215955.555,V,4154.881,N,07602.455,W,34.4,1.31,080816,,E*4C
$GPGGA,215956.555,4154.881,N,07602.455,W,0,04,0.5,,M,,M,,*75
$GPGLL,4154.881,N,07602.455,W,215957.555,V*3B
$GPGSA,A,2,14,06,15,09,19,12,,,,,,,0.7,0.7,0.2*34
$GPGSV,2,1,06,14,65,161,69,06,77,136,43,15,27,111,46,09,32,212,49*70
$GPGSV,2,2,06,19,16,084,46,12,08,229,68*72
$GPRMC,220001.555,V,4154.881,N,07602.453,W,18.5,1.28,080816,,E*43
$GPGGA,220002.555,4154.881,N,07602.453,W,0,04,0.7,,M,,M,,*7F
$GPGLL,4154.881,N,07602.453,W,220003.555,V*33
$GPGSA,A,3,14,06,15,09,19,12,,,,,,,0.6,0.7,0.0*36
$GPGSV,2,1,06,14,84,249,87,06,26,197,38,15,22,335,76,09,34,070,37*7E
$GPGSV,2,2,06,19,32,152,62,12,67,148,75*79
$GPRMC,220007.555,V,4154.880,N,07602.452,W,89.9,1.30,080816,,E*48
$GPGGA,220008.555,4154.880,N,07602.452,W,0,04,0.7,,M,,M,,*75
$GPGLL,4154.880,N,07602.452,W,220009.555,V*39
$GPGSA,A,3,14,06,15,09,19,12,,,,,,,0.0,0.5,0.7*35
$GPGSV,2,1,06,14,49,122,58,06,50,243,49,15,25,356,25,09,69,165,29*78
$GPGSV,2,2,06,19,46,081,19,12,82,022,22*7D
$GPRMC,220013.555,V,4154.879,N,07602.450,W,65.0,1.27,080816,,E*44
$GPGGA,220014.555,4154.879,N,07602.450,W,0,04,0.5,,M,,M,,*7E
$GPGLL,4154.879,N,07602.450,W,220015.555,V*30
$GPGSA,A,2,14,06,15,09,19,12,,,,,,,0.2,0.4,0.9*39
$GPGSV,2,1,06,14,15,331,57,06,66,002,80,15,41,267,73,09,33,345,64*7D
$GPGSV,2,2,06,19,66,106,88,12,71,160,46*70
$GPRMC,220019.555,V,4154.878,N,07602.449,W,90.9,1.57,080816,,E*43
$GPGGA,220020.555,4154.878,N,07602.449,W,0,04,0.4,,M,,M,,*71
$GPGLL,4154.878,N,07602.449,W,220021.555,V*3E
$GPGSA,A,2,14,06,15,09,19,12,,,,,,,0.3,0.4,0.9*38
$GPGSV,2,1,06,14,13,202,78,06,42,249,89,15,65,091,87,09,18,028,39*7A
$GPGSV,2,2,06,19,67,052,32,12,83,320,52*7E
$GPRMC,220025.555,V,4154.876,N,07602.448,W,26.3,1.65,080816,,E*45
$GPGGA,220026.555,4154.876,N,07602.448,W,0,04,0.4,,M,,M,,*78
$GPGLL,4154.876,N,07602.448,W,220027.555,V*37
$GPGSA,A,3,14,06,15,09,19,12,,,,,,,0.2,0.2,0.8*3F
$GPGSV,2,1,06,14,68,037,31,06,78,005,59,15,86,323,20,09,78,029,24*70
$GPGSV,2,2,06,19,15,025,51,12,53,307,63*74
$GPRMC,220031.555,V,4154.874,N,07602.447,W,47.5,1.72,080816,,E*4A
$GPGGA,220032.555,4154.874,N,07602.447,W,0,04,0.2,,M,,M,,*76
$GPGLL,4154.874,N,07602.447,W,220033.555,V*3F
$GPGSA,A,2,14,06,15,09,19,12,,,,,,,0.6,0.5,0.2*37
$GPGSV,2,1,06,14,28,056,19,06,57,282,74,15,59,093,68,09,61,116,21*70
$GPGSV,2,2,06,19,21,116,80,12,85,135,44*73
$GPRMC,220037.555,V,4154.873,N,07602.446,W,15.5,1.69,080816,,E*47
$GPGGA,220038.555,4154.873,N,07602.446,W,0,04,0.5,,M,,M,,*7D
$GPGLL,4154.873,N,07602.446,W,220039.555,V*33
$GPGSA,A,2,14,06,15,09,19,12,,,,,,,0.1,0.1,1.0*37
$GPGSV,2,1,06,14,41,194,86,06,89,022,87,15,71,346,48,09,82,087,15*71
$GPGSV,2,2,06,19,10,217,82,12,06,188,32*7D
$GPRMC,220043.555,V,4154.871,N,07602.447,W,10.6,2.07,080816,,E*4A
$GPGGA,220044.555,4154.871,N,07602.447,W,0,04,0.1,,M,,M,,*71
$GPGLL,4154.871,N,07602.447,W,220045.555,V*3B
$GPGSA,A,2,14,06,15,09,19,12,,,,,,,0.6,0.5,0.2*37
$GPGSV,2,1,06,14,16,270,60,06,63,295,32,15,29,153,89,09,71,116,18*78
$GPGSV,2,2,06,19,66,141,32,12,88,090,20*7A
$GPRMC,220049.555,V,4154.869,N,07602.447,W,76.9,2.15,080816,,E*45
$GPGGA,220050.555,4154.869,N,07602.447,W,0,04,0.5,,M,,M,,*79
$GPGLL,4154.869,N,07602.447,W,220051.555,V*37
$GPGSA,A,3,14,06,15,09,19,12,,,,,,,0.5,0.8,0.4*3E
$GPGSV,2,1,06,14,52,038,40,06,56,340,82,15,10,205,47,09,38,219,80*78
$GPGSV,2,2,06,19,21,357,71,12,34,133,27*73
$GPRMC,220055.555,V,4154.868,N,07602.446,W,26.4,1.68,080816,,E*49
$GPGGA,220056.555,4154.868,N,07602.446,W,0,04,0.8,,M,,M,,*72
$GPGLL,4154.868,N,07602.446,W,220057.555,V*31
$GPGSA,A,2,14,06,15,09,19,12,,,,,,,0.7,0.1,0.6*36
$GPGSV,2,1,06,14,32,068,41,06,28,197,32,15,71,170,40,09,55,032,68*77
$GPGSV,2,2,06,19,53,154,83,12,54,338,61*77
$GPRMC,220101.555,V,4154.866,N,07602.445,W,39.3,1.62,080816,,E*47
$GPGGA,220102.555,4154.866,N,07602.445,W,0,04,0.1,,M,,M,,*76
$GPGLL,4154.866,N,07602.445,W,220103.555,V*3C
$GPGSA,A,2,14,06,15,09,19,12,,,,,,,0.6,0.2,0.5*37
$GPGSV,2,1,06,14,79,206,53,06,08,185,80,15,23,017,75,09,59,131,45*79
$GPGSV,2,2,06,19,69,131,49,12,05,306,56*76
$GPRMC,220107.555,V,4154.865,N,07602.444,W,2.1,1.53,080816,,E*7B
$GPGGA,220108.555,4154.865,N,07602.444,W,0,04,0.2,,M,,M,,*7D
$GPGLL,4154.865,N,07602.444,W,220109.555,V*34
$GPGSA,A,3,14,06,15,09,19,12,,,,,,,0.6,0.6,0.1*36
$GPGSV,2,1,06,14,43,110,52,06,36,311,68,15,47,282,89,09,17,110,70*71
$GPGSV,2,2,06,19,24,080,65,12,29,009,61*7C
$GPRMC,220113.555,V,4154.864,N,07602.443,W,28.2,1.59,080816,,E*49
$GPGGA,220114.555,4154.864,N,07602.443,W,0,04,0.6,,M,,M,,*72
$GPGLL,4154.864,N,07602.443,W,220115.555,V*3F
$GPGSA,A,2,14,06,15,09,19,12,,,,,,,0.3,0.2,0.7*30
$GPGSV,2,1,06,14,84,076,78,06,57,086,84,15,40,020,51,09,07,034,64*70
$GPGSV,2,2,06,19,78,029,33,12,53,050,19*7B
$GPRMC,220119.555,V,4154.862,N,07602.442,W,86.6,1.61,080816,,E*4F
$GPGGA,220120.555,4154.862,N,07602.442,W,0,04,0.2,,M,,M,,*76
$GPGLL,4154.862,N,07602.442,W,220121.555,V*3F
$GPGSA,A,3,14,06,15,09,19,12,,,,,,,0.9,1.0,0.0*3F
$GPGSV,2,1,06,14,83,015,38,06,30,131,27,15,09,267,16,09,70,024,41*7A
$GPGSV,2,2,06,19,66,128,55,12,07,074,75*79
$GPRMC,220125.555,V,4154.861,N,07602.441,W,21.3,1.65,080816,,E*4C
$GPGGA,220126.555,4154.861,N,07602.441,W,0,04,1.0,,M,,M,,*73
$GPGLL,4154.861,N,07602.441,W,220127.555,V*39
$GPGSA,A,2,14,06,15,09,19,12,,,,,,,0.3,0.1,0.9*3D
$GPGSV,2,1,06,14,33,148,68,06,17,205,32,15,10,163,40,09,24,180,37*7B
$GPGSV,2,2,06,19,23,034,48,12,36,072,59*72
$GPRMC,220131.555,V,4154.859,N,07602.440,W,93.8,1.69,080816,,E*4D
$GPGGA,220132.555,4154.859,N,07602.440,W,0,04,0.1,,M,,M,,*7C
$GPGLL,4154.859,N,07602.440,W,220133.555,V*36
$GPGSA,A,3,14,06,15,09,19,12,,,,,,,0.5,0.1,1.0*32
$GPGSV,2,1,06,14,54,287,21,06,76,235,40,15,28,272,47,09,68,007,33*7B
$GPGSV,2,2,06,19,62,038,78,12,17,332,25*77
$GPRMC,220137.555,V,4154.857,N,07602.439,W,94.5,1.77,080816,,E*4E
$GPGGA,220138.555,4154.857,N,07602.439,W,0,04,0.1,,M,,M,,*76
$GPGLL,4154.857,N,07602.439,W,220139.555,V*3C
$GPGSA,A,3,14,06,15,09,19,12,,,,,,,0.3,0.0,0.2*36
$GPGSV,2,1,06,14,79,264,72,06,83,176,56,15,21,304,68,09,61,328,70*72
$GPGSV,2,2,06,19,69,102,64,12,51,085,62*77
$GPRMC,220143.555,V,4154.856,N,07602.439,W,7.2,1.81,080816,,E*78
$GPGGA,220144.555,4154.856,N,07602.439,W,0,04,0.0,,M,,M,,*7D
$GPGLL,4154.856,N,07602.439,W,220145.555,V*36
$GPGSA,A,2,14,06,15,09,19,12,,,,,,,0.7,0.2,0.0*33
$GPGSV,2,1,06,14,45,256,67,06,67,314,18,15,46,337,80,09,11,204,58*7B
$GPGSV,2,2,06,19,55,142,62,12,51,352,21*74
$GPRMC,220149.555,V,4154.854,N,07602.438,W,66.6,1.83,080816,,E*40
$GPGGA,220150.555,4154.854,N,07602.438,W,0,04,0.2,,M,,M,,*79
$GPGLL,4154.854,N,07602.438,W,220151.555,V*30
$GPGSA,A,2,14,06,15,09,19,12,,,,,,,0.9,0.2,0.7*3A
$GPGSV,2,1,06,14,50,064,26,06,08,098,59,15,80,321,30,09,62,332,38*72
$GPGSV,2,2,06,19,68,340,47,12,25,282,21*72
$GPRMC,220155.555,V,4154.852,N,07602.438,W,42.5,1.88,080816,,E*45
$GPGGA,220156.555,4154.852,N,07602.438,W,0,04,0.2,,M,,M,,*79
$GPGLL,4154.852,N,07602.438,W,220157.555,V*30
$GPGSA,A,3,14,06,15,09,19,12,,,,,,,0.6,0.1,0.8*38
$GPGSV,2,1,06,14,72,012,39,06,64,095,40,15,52,123,24,09,56,249,85*74
$GPGSV,2,2,06,19,24,203,36,12,74,195,86*76
$GPRMC,220201.555,V,4154.850,N,07602.438,W,17.9,1.92,080816,,E*42
$GPGGA,220202.555,4154.850,N,07602.438,W,0,04,0.1,,M,,M,,*7A
$GPGLL,4154.850,N,07602.438,W,220203.555,V*30
$GPGSA,A,3,14,06,15,09,19,12,,,,,,,0.8,0.1,1.0*3F
$GPGSV,2,1,06,14,45,218,35,06,78,179,81,15,86,000,61,09,66,156,26*78
$GPGSV,2,2,06,19,44,159,16,12,38,282,57*7F
$GPRMC,220207.555,V,4154.848,N,07602.438,W,12.6,1.96,080816,,E*43
$GPGGA,220208.555,4154.848,N,07602.438,W,0,04,0.1,,M,,M,,*79
$GPGLL,4154.848,N,07602.438,W,220209.555,V*33
$GPGSA,A,3,14,06,15,09,19,12,,,,,,,0.1,0.7,0.1*30
$GPGSV,2,1,06,14,58,154,74,06,29,111,28,15,59,006,64,09,32,317,27*75
$GPGSV,2,2,06,19,41,302,34,12,24,318,74*78
$GPRMC,220213.555,V,4154.847,N,07602.438,W,39.2,2.01,080816,,E*49
$GPGGA,220214.555,4154.847,N,07602.438,W,0,04,0.7,,M,,M,,*7D
$GPGLL,4154.847,N,07602.438,W,220215.555,V*31
$GPGSA,A,2,14,06,15,09,19,12,,,,,,,0.5,0.8,0.7*3C
$GPGSV,2,1,06,14,51,010,52,06,20,233,44,15,17,212,38,09,42,352,63*7B
$GPGSV,2,2,06,19,81,322,26,12,87,254,81*7F
$GPRMC,220219.555,V,4154.845,N,07602.437,W,71.1,1.91,080816,,E*4B
$GPGGA,220220.555,4154.845,N,07602.437,W,0,04,0.8,,M,,M,,*78
$GPGLL,4154.845,N,07602.437,W,220221.555,V*3B
$GPGSA,A,2,14,06,15,09,19,12,,,,,,,0.6,0.3,0.1*32
$GPGSV,2,1,06,14,88,134,56,06,25,181,21,15,75,110,23,09,46,108,15*77
$GPGSV,2,2,06,19,73,086,41,12,44,013,16*7E
$GPRMC,220225.555,V,4154.843,N,07602.437,W,8.9,1.98,080816,,E*7D
$GPGGA,220226.555,4154.843,N,07602.437,W,0,04,0.3,,M,,M,,*73
$GPGLL,4154.843,N,07602.437,W,220227.555,V*3B
$GPGSA,A,3,14,06,15,09,19,12,,,,,,,0.8,0.5,0.3*39
$GPGSV,2,1,06,14,36,029,40,06,40,037,21,15,64,255,87,09,10,132,85*78
$GPGSV,2,2,06,19,44,210,35,12,30,085,45*7E
$GPRMC,220231.555,V,4154.841,N,07602.437,W,7.5,1.94,080816,,E*75
$GPGGA,220232.555,4154.841,N,07602.437,W,0,04,0.5,,M,,M,,*72
$GPGLL,4154.841,N,07602.437,W,220233.555,V*3C
$GPGSA,A,2,14,06,15,09,19,12,,,,,,,0.2,0.9,0.6*3B
$GPGSV,2,1,06,14,39,205,75,06,66,097,37,15,51,268,84,09,49,257,54*7F
$GPGSV,2,2,06,19,49,270,41,12,55,049,18*7D
$GPRMC,220237.555,V,4154.839,N,07602.437,W,99.2,2.03,080816,,E*41
$GPGGA,220238.555,4154.839,N,07602.437,W,0,04,0.9,,M,,M,,*7B
$GPGLL,4154.839,N,07602.437,W,220239.555,V*39
$GPGSA,A,2,14,06,15,09,19,12,,,,,,,0.4,0.8,0.4*3E
$GPGSV,2,1,06,14,62,268,36,06,30,344,84,15,25,320,48,09,12,145,16*7D
$GPGSV,2,2,06,19,14,117,64,12,75,242,49*7F
$GPRMC,220243.555,V,4154.838,N,07602.437,W,97.0,1.95,080816,,E*43
$GPGGA,220244.555,4154.838,N,07602.437,W,0,04,0.8,,M,,M,,*70
$GPGLL,4154.838,N,07602.437,W,220245.555,V*33
$GPGSA,A,3,14,06,15,09,19,12,,,,,,,0.4,0.2,0.4*35
$GPGSV,2,1,06,14,30,305,83,06,72,325,43,15,07,180,66,09,52,003,60*76
$GPGSV,2,2,06,19,21,155,44,12,68,248,68*78
$GPRMC,220249.555,V,4154.836,N,07602.437,W,12.5,1.89,080816,,E*42
$GPGGA,220250.555,4154.836,N,07602.437,W,0,04,0.2,,M,,M,,*71
$GPGLL,4154.836,N,07602.437,W,220251.555,V*38
$GPGSA,A,3,14,06,15,09,19,12,,,,,,,1.0,0.3,0.4*31
$GPGSV,2,1,06,14,74,358,62,06,18,024,24,15,32,240,87,09,34,208,73*73
$GPGSV,2,2,06,19,43,287,42,12,24,331,26*7B
$GPRMC,220255.555,V,4154.834,N,07602.437,W,38.2,1.98,080816,,E*42
$GPGGA,220256.555,4154.834,N,07602.437,W,0,04,0.3,,M,,M,,*74
$GPGLL,4154.834,N,07602.437,W,220257.555,V*3C
$GPGSA,A,2,14,06,15,09,19,12,,,,,,,0.2,0.0,0.4*30
$GPGSV,2,1,06,14,20,101,70,06,80,173,20,15,45,030,43,09,17,144,64*78
$GPGSV,2,2,06,19,53,243,71,12,45,135,82*7D
$GPRMC,220301.555,V,4154.833,N,07602.436,W,26.9,1.55,080816,,E*41
$GPGGA,220302.555,4154.833,N,07602.436,W,0,04,0.0,,M,,M,,*71
$GPGLL,4154.833,N,07602.436,W,220303.555,V*3A
$GPGSA,A,2,14,06,15,09,19,12,,,,,,,0.5,0.2,0.4*35
$GPGSV,2,1,06,14,72,036,82,06,09,081,86,15,10,021,60,09,53,045,49*78
$GPGSV,2,2,06,19,15,011,47,12,64,240,74*74
$GPRMC,220307.555,V,4154.832,N,07602.434,W,11.9,1.46,080816,,E*42
$GPGGA,220308.555,4154.832,N,07602.434,W,0,04,0.2,,M,,M,,*7A
$GPGLL,4154.832,N,07602.434,W,220309.555,V*33
$GPGSA,A,2,14,06,15,09,19,12,,,,,,,0.0,0.4,0.7*35
$GPGSV,2,1,06,14,55,014,69,06,30,178,69,15,33,196,36,09,83,037,60*78
$GPGSV,2,2,06,19,23,227,35,12,27,156,40*77
$GPRMC,220313.555,V,4154.830,N,07602.433,W,72.0,1.50,080816,,E*49
$GPGGA,220314.555,4154.830,N,07602.433,W,0,04,0.4,,M,,M,,*74
$GPGLL,4154.830,N,07602.433,W,220315.555,V*3B
$GPGSA,A,2,14,06,15,09,19,12,,,,,,,0.5,0.2,0.3*32
$GPGSV,2,1,06,14,79,235,68,06,22,094,45,15,15,106,61,09,46,060,60*7C
$GPGSV,2,2,06,19,80,007,82,12,28,007,84*70
$GPRMC,220319.555,V,4154.829,N,07602.432,W,83.9,1.58,080816,,E*45
$GPGGA,220320.555,4154.829,N,07602.432,W,0,04,0.2,,M,,M,,*7C
$GPGLL,4154.829,N,07602.432,W,220321.555,V*35
$GPGSA,A,3,14,06,15,09,19,12,,,,,,,0.9,0.8,0.1*37
$GPGSV,2,1,06,14,19,105,43,06,62,093,15,15,45,290,83,09,82,051,40*78
$GPGSV,2,2,06,19,36,342,79,12,33,103,31*7A
$GPRMC,220325.555,V,4154.828,N,07602.431,W,55.9,1.51,080816,,E*4A
$GPGGA,220326.555,4154.828,N,07602.431,W,0,04,0.8,,M,,M,,*72
$GPGLL,4154.828,N,07602.431,W,220327.555,V*31
$GPGSA,A,3,14,06,15,09,19,12,,,,,,,0.7,0.5,0.1*34
$GPGSV,2,1,06,14,81,102,79,06,58,183,31,15,87,050,21,09,05,013,69*72
$GPGSV,2,2,06,19,31,200,25,12,88,271,53*71
$GPRMC,220331.555,V,4154.826,N,07602.430,W,72.7,1.58,080816,,E*42
$GPGGA,220332.555,4154.826,N,07602.430,W,0,04,0.5,,M,,M,,*75
$GPGLL,4154.826,N,07602.430,W,220333.555,V*3B
$GPGSA,A,2,14,06,15,09,19,12,,,,,,,0.1,0.4,0.7*34
$GPGSV,2,1,06,14,75,058,84,06,88,062,48,15,63,052,70,09,21,278,76*73
$GPGSV,2,2,06,19,33,235,22,12,47,069,60*7A
$GPRMC,220337.555,V,4154.825,N,07602.428,W,32.9,1.55,080816,,E*49
$GPGGA,220338.555,4154.825,N,07602.428,W,0,04,0.4,,M,,M,,*74
$GPGLL,4154.825,N,07602.428,W,220339.555,V*3B
$GPGSA,A,2,14,06,15,09,19,12,,,,,,,0.0,1.0,0.6*31
$GPGSV,2,1,06,14,62,346,70,06,34,157,84,15,58,072,28,09,64,028,43*75
$GPGSV,2,2,06,19,32,067,43,12,31,198,70*76
$GPRMC,220343.555,V,4154.823,N,07602.427,W,46.8,1.57,080816,,E*43
$GPGGA,220344.555,4154.823,N,07602.427,W,0,04,1.0,,M,,M,,*73
$GPGLL,4154.823,N,07602.427,W,220345.555,V*39
$GPGSA,A,2,14,06,15,09,19,12,,,,,,,0.0,0.7,0.3*32
$GPGSV,2,1,06,14,29,071,72,06,22,331,63,15,79,284,87,09,30,170,70*73
$GPGSV,2,2,06,19,62,154,49,12,56,317,41*7E
$GPRMC,220349.555,V,4154.822,N,07602.426,W,54.7,1.60,080816,,E*41
$GPGGA,220350.555,4154.822,N,07602.426,W,0,04,0.7,,M,,M,,*70
$GPGLL,4154.822,N,07602.426,W,220351.555,V*3C
$GPGSA,A,2,14,06,15,09,19,12,,,,,,,0.6,0.8,0.6*3E
$GPGSV,2,1,06,14,56,053,78,06,05,341,49,15,71,358,63,09,69,269,26*7D
$GPGSV,2,2,06,19,69,098,75,12,25,258,67*71
$GPRMC,220355.555,V,4154.820,N,07602.426,W,76.7,2.04,080816,,E*4F
$GPGGA,220356.555,4154.820,N,07602.426,W,0,04,0.8,,M,,M,,*7B
$GPGLL,4154.820,N,07602.426,W,220357.555,V*38
$GPGSA,A,2,14,06,15,09,19,12,,,,,,,1.0,0.3,0.3*37
$GPGSV,2,1,06,14,11,301,88,06,83,124,45,15,20,048,20,09,58,271,72*7D
$GPGSV,2,2,06,19,13,316,62,12,70,083,43*7D
$GPRMC,220401.555,V,4154.818,N,07602.426,W,0.6,1.98,080816,,E*74
$GPGGA,220402.555,4154.818,N,07602.426,W,0,04,0.3,,M,,M,,*7D
$GPGLL,4154.818,N,07602.426,W,220403.555,V*35
$GPGSA,A,2,14,06,15,09,19,12,,,,,,,0.5,0.7,0.5*31
$GPGSV,2,1,06,14,14,085,77,06,05,240,64,15,59,022,37,09,79,018,64*76
$GPGSV,2,2,06,19,68,339,44,12,40,312,64*75
$GPRMC,220407.555,V,4154.816,N,07602.426,W,13.8,2.00,080816,,E*42
$GPGGA,220408.555,4154.816,N,07602.426,W,0,04,0.7,,M,,M,,*7D
$GPGLL,4154.816,N,07602.426,W,220409.555,V*31
$GPGSA,A,2,14,06,15,09,19,12,,,,,,,0.5,0.4,0.6*31
$GPGSV,2,1,06,14,30,149,33,06,66,089,89,15,30,154,73,09,18,267,64*72
$GPGSV,2,2,06,19,44,344,85,12,46,281,68*7D
$GPRMC,220413.555,V,4154.815,N,07602.426,W,37.8,2.03,080816,,E*41
$GPGGA,220414.555,4154.815,N,07602.426,W,0,04,0.4,,M,,M,,*70
$GPGLL,4154.815,N,07602.426,W,220415.555,V*3F
$GPGSA,A,3,14,06,15,09,19,12,,,,,,,0.3,0.1,0.1*34
$GPGSV,2,1,06,14,84,172,54,06,42,268,30,15,55,157,46,09,68,212,71*7A
$GPGSV,2,2,06,19,07,018,52,12,32,247,19*75
$GPRMC,220419.555,V,4154.813,N,07602.426,W,97.6,1.92,080816,,E*42
$GPGGA,220420.555,4154.813,N,07602.426,W,0,04,0.1,,M,,M,,*74
$GPGLL,4154.813,N,07602.426,W,220421.555,V*3E
$GPGSA,A,2,14,06,15,09,19,12,,,,,,,0.7,0.7,0.1*37
$GPGSV,2,1,06,14,19,308,79,06,52,079,18,15,35,322,58,09,73,076,22*72
$GPGSV,2,2,06,19,89,090,19,12,75,273,86*7E
$GPRMC,220425.555,V,4154.811,N,07602.426,W,26.2,1.93,080816,,E*40
$GPGGA,220426.555,4154.811,N,07602.426,W,0,04,0.7,,M,,M,,*76
$GPGLL,4154.811,N,07602.426,W,220427.555,V*3A
$GPGSA,A,2,14,06,15,09,19,12,,,,,,,0.5,0.6,0.4*31
$GPGSV,2,1,06,14,38,110,50,06,64,146,61,15,75,018,20,09,88,075,61*76
$GPGSV,2,2,06,19,23,269,23,12,21,024,42*7A
$GPRMC,220431.555,V,4154.809,N,07602.426,W,10.3,1.94,080816,,E*4F
$GPGGA,220432.555,4154.809,N,07602.426,W,0,04,0.6,,M,,M,,*7B
$GPGLL,4154.809,N,07602.426,W,220433.555,V*36
$GPGSA,A,2,14,06,15,09,19,12,,,,,,,0.3,0.9,0.4*38
$GPGSV,2,1,06,14,77,114,45,06,72,235,68,15,06,041,29,09,84,110,69*73
$GPGSV,2,2,06,19,30,113,68,12,63,178,34*76
$GPRMC,220437.555,V,4154.808,N,07602.425,W,34.1,1.88,080816,,E*42
$GPGGA,220438.555,4154.808,N,07602.425,W,0,04,0.9,,M,,M,,*7C
$GPGLL,4154.808,N,07602.425,W,220439.555,V*3E
$GPGSA,A,3,14,06,15,09,19,12,,,,,,,0.2,0.2,0.4*33
$GPGSV,2,1,06,14,18,308,39,06,42,348,76,15,09,348,85,09,13,198,78*74
$GPGSV,2,2,06,19,72,227,73,12,84,136,64*78
$GPRMC,220443.555,V,4154.806,N,07602.425,W,15.0,1.91,080816,,E*45
$GPGGA,220444.555,4154.806,N,07602.425,W,0,04,0.2,,M,,M,,*72
$GPGLL,4154.806,N,07602.425,W,220445.555,V*3B
$GPGSA,A,3,14,06,15,09,19,12,,,,,,,0.6,0.3,0.0*32
$GPGSV,2,1,06,14,81,112,75,06,67,271,81,15,25,193,60,09,71,297,41*72
$GPGSV,2,2,06,19,80,181,50,12,24,162,15*76
$GPRMC,220449.555,V,4154.804,N,07602.425,W,34.3,1.91,080816,,E*4D
$GPGGA,220450.555,4154.804,N,07602.425,W,0,04,0.3,,M,,M,,*74
$GPGLL,4154.804,N,07602.425,W,220451.555,V*3C
$GPGSA,A,3,14,06,15,09,19,12,,,,,,,0.2,0.9,0.5*39
$GPGSV,2,1,06,14,09,343,34,06,30,238,66,15,47,082,46,09,32,055,73*7C
$GPGSV,2,2,06,19,24,152,23,12,38,183,40*70
$GPRMC,220455.555,V,4154.802,N,07602.425,W,31.3,1.95,080816,,E*47
$GPGGA,220456.555,4154.802,N,07602.425,W,0,04,0.9,,M,,M,,*7E
$GPGLL,4154.802,N,07602.425,W,220457.555,V*3C
$GPGSA,A,3,14,06,15,09,19,12,,,,,,,0.0,0.8,0.7*38
$GPGSV,2,1,06,14,16,131,26,06,05,104,78,15,87,023,36,09,78,175,23*7B
$GPGSV,2,2,06,19,87,257,80,12,16,249,75*79
$GPRMC,220501.555,V,4154.800,N,07602.425,W,51.3,2.04,080816,,E*48
$GPGGA,220502.555,4154.800,N,07602.425,W,0,04,0.8,,M,,M,,*7D
$GPGLL,4154.800,N,07602.425,W,220503.555,V*3E
$GPGSA,A,3,14,06,15,09,19,12,,,,,,,0.2,0.5,0.7*37
$GPGSV,2,1,06,14,26,242,54,06,25,171,31,15,84,127,18,09,74,031,38*7A
$GPGSV,2,2,06,19,73,252,81,12,31,285,48*7D
$GPRMC,220507.555,V,4154.799,N,07602.425,W,99.8,2.15,080816,,E*4E
$GPGGA,220508.555,4154.799,N,07602.425,W,0,04,0.5,,M,,M,,*75
$GPGLL,4154.799,N,07602.425,W,220509.555,V*3B
$GPGSA,A,2,14,06,15,09,19,12,,,,,,,0.8,0.9,0.6*31
$GPGSV,2,1,06,14,19,131,87,06,17,123,67,15,32,242,39,09,10,148,60*74
$GPGSV,2,2,06,19,17,356,34,12,84,343,20*7F
$GPRMC,220513.555,V,4154.797,N,07602.426,W,5.9,2.24,080816,,E*70
$GPGGA,220514.555,4154.797,N,07602.426,W,0,04,0.9,,M,,M,,*79
$GPGLL,4154.797,N,07602.426,W,220515.555,V*3B
$GPGSA,A,2,14,06,15,09,19,12,,,,,,,0.4,0.9,0.0*3B
$GPGSV,2,1,06,14,75,213,38,06,36,178,25,15,27,281,74,09,72,282,30*74
$GPGSV,2,2,06,19,17,015,43,12,40,246,89*74
$GPRMC,220519.555,V,4154.795,N,07602.427,W,75.5,2.32,080816,,E*45
$GPGGA,220520.555,4154.795,N,07602.427,W,0,04,0.9,,M,,M,,*7D
$GPGLL,4154.795,N,07602.427,W,220521.555,V*3F
$GPGSA,A,2,14,06,15,09,19,12,,,,,,,0.5,0.5,0.6*30
$GPGSV,2,1,06,14,87,287,87,06,37,185,64,15,15,199,41,09,77,072,80*78
$GPGSV,2,2,06,19,24,248,87,12,21,048,77*7C
$GPRMC,220525.555,V,4154.794,N,07602.428,W,29.8,2.42,080816,,E*47
$GPGGA,220526.555,4154.794,N,07602.428,W,0,04,0.5,,M,,M,,*79
$GPGLL,4154.794,N,07602.428,W,220527.555,V*37
$GPGSA,A,3,14,06,15,09,19,12,,,,,,,0.8,0.5,0.2*38
$GPGSV,2,1,06,14,35,302,62,06,68,201,69,15,48,299,15,09,45,203,73*7D
$GPGSV,2,2,06,19,49,152,55,12,29,092,21*7C
$GPRMC,220531.555,V,4154.792,N,07602.429,W,84.0,2.33,080816,,E*4C
$GPGGA,220532.555,4154.792,N,07602.429,W,0,04,0.5,,M,,M,,*7B
$GPGLL,4154.792,N,07602.429,W,220533.555,V*35
$GPGSA,A,3,14,06,15,09,19,12,,,,,,,0.2,0.7,0.2*30
$GPGSV,2,1,06,14,70,174,16,06,81,166,79,15,38,225,50,09,43,264,60*7C
$GPGSV,2,2,06,19,65,247,15,12,83,272,85*73
$GPRMC,220537.555,V,4154.791,N,07602.430,W,11.4,2.33,080816,,E*49
$GPGGA,220538.555,4154.791,N,07602.430,W,0,04,0.7,,M,,M,,*78
$GPGLL,4154.791,N,07602.430,W,220539.555,V*34
$GPGSA,A,2,14,06,15,09,19,12,,,,,,,0.8,0.2,0.1*3D
$GPGSV,2,1,06,14,62,125,59,06,23,162,57,15,27,150,17,09,48,102,57*70
$GPGSV,2,2,06,19,32,321,77,12,60,038,86*76
$GPRMC,220543.555,V,4154.789,N,07602.431,W,19.9,2.39,080816,,E*4D
$GPGGA,220544.555,4154.789,N,07602.431,W,0,04,0.2,,M,,M,,*7E
$GPGLL,4154.789,N,07602.431,W,220545.555,V*37
$GPGSA,A,2,14,06,15,09,19,12,,,,,,,0.2,1.0,0.7*32
$GPGSV,2,1,06,14,58,141,26,06,47,129,64,15,33,194,74,09,24,072,55*78
$GPGSV,2,2,06,19,24,026,88,12,59,096,82*7F
$GPRMC,220549.555,V,4154.788,N,07602.432,W,75.2,2.35,080816,,E*48
$GPGGA,220550.555,4154.788,N,07602.432,W,0,04,1.0,,M,,M,,*7A
$GPGLL,4154.788,N,07602.432,W,220551.555,V*30
$GPGSA,A,2,14,06,15,09,19,12,,,,,,,0.2,0.9,0.5*38
$GPGSV,2,1,06,14,74,227,83,06,44,178,17,15,35,074,48,09,14,264,51*7D
$GPGSV,2,2,06,19,14,352,71,12,20,020,52*74
$GPRMC,220555.555,V,4154.786,N,07602.432,W,57.4,2.21,080816,,E*48
$GPGGA,220556.555,4154.786,N,07602.432,W,0,04,0.9,,M,,M,,*7A
$GPGLL,4154.786,N,07602.432,W,220557.555,V*38
$GPGSA,A,2,14,06,15,09,19,12,,,,,,,0.7,0.3,0.0*32
$GPGSV,2,1,06,14,72,188,34,06,17,058,30,15,72,247,89,09,55,291,24*70
$GPGSV,2,2,06,19,23,045,26,12,72,331,78*7B
$GPRMC,220601.555,V,4154.784,N,07602.433,W,60.9,2.12,080816,,E*40
$GPGGA,220602.555,4154.784,N,07602.433,W,0,04,0.3,,M,,M,,*71
$GPGLL,4154.784,N,07602.433,W,220603.555,V*39
$GPGSA,A,2,14,06,15,09,19,12,,,,,,,0.1,0.8,0.9*36
$GPGSV,2,1,06,14,86,132,68,06,70,195,84,15,50,270,68,09,76,091,86*7D
$GPGSV,2,2,06,19,88,067,52,12,58,327,85*74
$GPRMC,215626.571,V,3554.931,N,08202.498,W,39.1,3.60,080816,,E*4C
$GPGGA,215627.571,3554.931,N,08202.498,W,0,00,,,M,,M,,*56
$GPGLL,3554.931,N,08202.498,W,215628.571,V*39
$GPGSA,A,2,07,19,04,05,17,12,,,,,,,0.7,0.0,0.4*3B
$GPGSV,2,1,06,07,43,115,54,19,43,289,79,04,67,291,29,05,45,280,44*70
$GPGSV,2,2,06,17,23,125,78,12,13,336,26*72
$GPRMC,215632.571,V,3554.933,N,08202.499,W,72.7,3.62,080816,,E*41
$GPGGA,215633.571,3554.933,N,08202.499,W,0,04,0.0,,M,,M,,*7A
$GPGLL,3554.933,N,08202.499,W,215634.571,V*37
$GPGSA,A,3,07,19,04,05,17,12,,,,,,,0.2,0.1,0.6*3C
$GPGSV,2,1,06,07,22,353,53,19,45,046,82,04,32,186,86,05,39,268,40*7A
$GPGSV,2,2,06,17,43,170,41,12,11,275,60*78
$GPRMC,215638.571,V,3554.934,N,08202.499,W,79.1,4.08,080816,,E*4A
$GPGGA,215639.571,3554.934,N,08202.499,W,0,04,0.1,,M,,M,,*76
$GPGLL,3554.934,N,08202.499,W,215640.571,V*33
$GPGSA,A,2,07,19,04,05,17,12,,,,,,,0.2,0.6,0.4*38
$GPGSV,2,1,06,07,66,010,27,19,38,157,47,04,58,355,86,05,88,023,86*72
$GPGSV,2,2,06,17,23,084,86,12,19,268,24*7B
$GPRMC,215644.571,V,3554.936,N,08202.499,W,95.4,4.09,080816,,E*45
$GPGGA,215645.571,3554.936,N,08202.499,W,0,04,0.6,,M,,M,,*78
$GPGLL,3554.936,N,08202.499,W,215646.571,V*37
$GPGSA,A,2,07,19,04,05,17,12,,,,,,,0.8,0.6,0.5*33
$GPGSV,2,1,06,07,36,039,15,19,67,106,71,04,26,200,67,05,73,146,56*7A
$GPGSV,2,2,06,17,11,079,58,12,33,023,66*78
$GPRMC,215650.571,V,3554.938,N,08202.499,W,45.2,4.04,080816,,E*48
$GPGGA,215651.571,3554.938,N,08202.499,W,0,04,0.6,,M,,M,,*73
$GPGLL,3554.938,N,08202.499,W,215652.571,V*3C
$GPGSA,A,2,07,19,04,05,17,12,,,,,,,0.4,0.0,0.6*3A
$GPGSV,2,1,06,07,55,140,49,19,57,240,33,04,76,099,40,05,30,289,37*7F
$GPGSV,2,2,06,17,60,195,38,12,44,117,58*70
$GPRMC,215656.571,V,3554.940,N,08202.499,W,55.5,3.96,080816,,E*4B
$GPGGA,215657.571,3554.940,N,08202.499,W,0,04,0.0,,M,,M,,*7C
$GPGLL,3554.940,N,08202.499,W,215658.571,V*39
$GPGSA,A,3,07,19,04,05,17,12,,,,,,,0.1,0.8,0.2*32
$GPGSV,2,1,06,07,78,112,86,19,50,199,27,04,25,291,59,05,82,279,50*72
$GPGSV,2,2,06,17,33,131,69,12,68,258,38*7C
$GPRMC,215702.571,V,3554.942,N,08202.499,W,89.6,3.94,080816,,E*49
$GPGGA,215703.571,3554.942,N,08202.499,W,0,04,0.8,,M,,M,,*76
$GPGLL,3554.942,N,08202.499,W,215704.571,V*33
$GPGSA,A,2,07,19,04,05,17,12,,,,,,,0.0,0.0,0.2*3A
$GPGSV,2,1,06,07,64,214,82,19,32,315,71,04,30,100,63,05,41,180,60*70
$GPGSV,2,2,06,17,64,219,32,12,59,311,15*78
$GPRMC,215708.571,V,3554.943,N,08202.499,W,45.3,3.93,080816,,E*40
$GPGGA,215709.571,3554.943,N,08202.499,W,0,04,0.0,,M,,M,,*75
$GPGLL,3554.943,N,08202.499,W,215710.571,V*37
$GPGSA,A,3,07,19,04,05,17,12,,,,,,,0.9,0.9,0.4*3D
$GPGSV,2,1,06,07,36,029,33,19,36,238,28,04,70,094,82,05,25,021,24*78
$GPGSV,2,2,06,17,53,005,54,12,62,291,59*7A
$GPRMC,215714.571,V,3554.945,N,08202.500,W,34.2,3.82,080816,,E*4D
$GPGGA,215715.571,3554.945,N,08202.500,W,0,04,0.9,,M,,M,,*76
$GPGLL,3554.945,N,08202.500,W,215716.571,V*36
$GPGSA,A,2,07,19,04,05,17,12,,,,,,,0.6,0.1,0.7*38
$GPGSV,2,1,06,07,55,023,23,19,40,306,16,04,76,002,68,05,22,279,22*75
$GPGSV,2,2,06,17,46,058,74,12,63,186,22*7C
$GPRMC,215720.571,V,3554.947,N,08202.500,W,6.7,3.78,080816,,E*79
$GPGGA,215721.571,3554.947,N,08202.500,W,0,04,0.1,,M,,M,,*7B
$GPGLL,3554.947,N,08202.500,W,215722.571,V*33
$GPGSA,A,2,07,19,04,05,17,12,,,,,,,0.4,0.8,0.7*33
$GPGSV,2,1,06,07,71,336,43,19,54,116,29,04,17,001,85,05,19,033,55*7B
$GPGSV,2,2,06,17,63,218,20,12,51,178,35*7A
$GPRMC,215726.571,V,3554.949,N,08202.501,W,21.8,3.79,080816,,E*4B
$GPGGA,215727.571,3554.949,N,08202.501,W,0,04,0.8,,M,,M,,*7B
$GPGLL,3554.949,N,08202.501,W,215728.571,V*36
$GPGSA,A,3,07,19,04,05,17,12,,,,,,,1.0,0.4,0.1*3D
$GPGSV,2,1,06,07,53,293,49,19,27,025,63,04,09,139,76,05,15,014,27*71
$GPGSV,2,2,06,17,36,167,16,12,09,238,48*74
$GPRMC,215732.571,V,3554.950,N,08202.501,W,46.6,3.98,080816,,E*46
$GPGGA,215733.571,3554.950,N,08202.501,W,0,04,0.4,,M,,M,,*7A
$GPGLL,3554.950,N,08202.501,W,215734.571,V*33
$GPGSA,A,2,07,19,04,05,17,12,,,,,,,0.1,0.5,0.6*3A
$GPGSV,2,1,06,07,81,014,31,19,81,105,55,04,61,050,46,05,50,155,17*73
$GPGSV,2,2,06,17,50,330,63,12,37,281,84*79
$GPRMC,215738.571,V,3554.952,N,08202.501,W,89.0,4.06,080816,,E*4B
$GPGGA,215739.571,3554.952,N,08202.501,W,0,04,0.5,,M,,M,,*73
$GPGLL,3554.952,N,08202.501,W,215740.571,V*32
$GPGSA,A,2,07,19,04,05,17,12,,,,,,,0.1,0.0,0.8*31
$GPGSV,2,1,06,07,67,275,38,19,37,342,35,04,19,139,84,05,84,172,49*75
$GPGSV,2,2,06,17,26,311,78,12,71,190,45*7D
$GPRMC,215744.571,V,3554.954,N,08202.501,W,77.2,3.95,080816,,E*48
$GPGGA,215745.571,3554.954,N,08202.501,W,0,04,0.0,,M,,M,,*7B
$GPGLL,3554.954,N,08202.501,W,215746.571,V*32
$GPGSA,A,2,07,19,04,05,17,12,,,,,,,0.3,0.4,0.8*37
$GPGSV,2,1,06,07,10,305,81,19,71,140,87,04,58,101,56,05,37,065,41*7C
$GPGSV,2,2,06,17,73,091,83,12,09,157,59*7B
$GPRMC,215750.571,V,3554.956,N,08202.501,W,1.2,3.86,080816,,E*7C
$GPGGA,215751.571,3554.956,N,08202.501,W,0,04,0.4,,M,,M,,*78
$GPGLL,3554.956,N,08202.501,W,215752.571,V*35
$GPGSA,A,2,07,19,04,05,17,12,,,,,,,0.9,0.3,0.9*3B
$GPGSV,2,1,06,07,50,057,56,19,67,069,64,04,83,254,28,05,74,118,58*7E
$GPGSV,2,2,06,17,68,132,75,12,43,027,66*74
$GPRMC,215756.571,V,3554.957,N,08202.502,W,31.9,3.84,080816,,E*42
$GPGGA,215757.571,3554.957,N,08202.502,W,0,04,0.3,,M,,M,,*7B
$GPGLL,3554.957,N,08202.502,W,215758.571,V*3D
$GPGSA,A,2,07,19,04,05,17,12,,,,,,,0.2,0.4,0.5*3B
$GPGSV,2,1,06,07,44,166,23,19,07,141,82,04,41,203,19,05,74,097,77*7A
$GPGSV,2,2,06,17,30,011,75,12,85,114,38*79
$GPRMC,215802.571,V,3554.959,N,08202.502,W,86.7,3.81,080816,,E*45
$GPGGA,215803.571,3554.959,N,08202.502,W,0,04,0.4,,M,,M,,*7C
$GPGLL,3554.959,N,08202.502,W,215804.571,V*35
$GPGSA,A,2,07,19,04,05,17,12,,,,,,,0.7,0.7,0.3*3B
$GPGSV,2,1,06,07,15,286,64,19,15,328,52,04,63,079,47,05,46,025,32*7E
$GPGSV,2,2,06,17,54,292,21,12,26,298,40*72
$GPRMC,215808.571,V,3554.961,N,08202.503,W,6.1,3.78,080816,,E*7D
$GPGGA,215809.571,3554.961,N,08202.503,W,0,04,0.7,,M,,M,,*7F
$GPGLL,3554.961,N,08202.503,W,215810.571,V*3A
$GPGSA,A,2,07,19,04,05,17,12,,,,,,,0.8,0.0,0.3*33
$GPGSV,2,1,06,07,21,274,22,19,42,077,57,04,52,283,72,05,58,292,68*75
$GPGSV,2,2,06,17,87,050,85,12,33,296,44*70
$GPRMC,215814.571,V,3554.962,N,08202.504,W,19.3,3.42,080816,,E*41
$GPGGA,215815.571,3554.962,N,08202.504,W,0,04,0.0,,M,,M,,*71
$GPGLL,3554.962,N,08202.504,W,215816.571,V*38
$GPGSA,A,2,07,19,04,05,17,12,,,,,,,0.8,0.2,0.0*32
$GPGSV,2,1,06,07,44,312,49,19,18,061,25,04,77,138,51,05,24,014,30*78
$GPGSV,2,2,06,17,14,027,83,12,10,350,28*7C
$GPRMC,215820.571,V,3554.963,N,08202.506,W,93.9,3.31,080816,,E*49
$GPGGA,215821.571,3554.963,N,08202.506,W,0,04,0.2,,M,,M,,*77
$GPGLL,3554.963,N,08202.506,W,215822.571,V*3C
$GPGSA,A,2,07,19,04,05,17,12,,,,,,,0.1,0.4,0.3*3E
$GPGSV,2,1,06,07,60,115,15,19,14,002,23,04,78,351,31,05,85,101,31*76
$GPGSV,2,2,06,17,43,140,37,12,08,148,56*7A
$GPRMC,215826.571,V,3554.963,N,08202.508,W,17.2,3.22,080816,,E*44
$GPGGA,215827.571,3554.963,N,08202.508,W,0,04,0.4,,M,,M,,*79
$GPGLL,3554.963,N,08202.508,W,215828.571,V*38
$GPGSA,A,3,07,19,04,05,17,12,,,,,,,0.2,0.1,0.8*32
$GPGSV,2,1,06,07,37,188,68,19,48,226,85,04,60,209,36,05,11,280,58*71
$GPGSV,2,2,06,17,08,176,35,12,73,337,33*77
$GPRMC,215832.571,V,3554.964,N,08202.509,W,60.6,3.21,080816,,E*40
$GPGGA,215833.571,3554.964,N,08202.509,W,0,04,0.1,,M,,M,,*7F
$GPGLL,3554.964,N,08202.509,W,215834.571,V*33
$GPGSA,A,2,07,19,04,05,17,12,,,,,,,0.3,0.6,0.1*3C
$GPGSV,2,1,06,07,74,222,55,19,24,028,32,04,15,017,40,05,37,077,88*7C
$GPGSV,2,2,06,17,76,102,84,12,55,192,21*7D
$GPRMC,215838.571,V,3554.965,N,08202.511,W,41.6,3.24,080816,,E*44
$GPGGA,215839.571,3554.965,N,08202.511,W,0,04,0.6,,M,,M,,*7A
$GPGLL,3554.965,N,08202.511,W,215840.571,V*38
$GPGSA,A,2,07,19,04,05,17,12,,,,,,,0.8,0.7,0.1*36
$GPGSV,2,1,06,07,76,219,73,19,31,219,44,04,30,138,43,05,56,255,24*7C
$GPGSV,2,2,06,17,45,304,83,12,54,065,23*74
$GPRMC,215844.571,V,3554.965,N,08202.513,W,77.4,3.20,080816,,E*4E
$GPGGA,215845.571,3554.965,N,08202.513,W,0,04,0.7,,M,,M,,*72
$GPGLL,3554.965,N,08202.513,W,215846.571,V*3C
$GPGSA,A,3,07,19,04,05,17,12,,,,,,,0.7,0.2,0.8*34
$GPGSV,2,1,06,07,59,315,55,19,16,333,23,04,16,075,86,05,31,119,29*77
$GPGSV,2,2,06,17,80,032,32,12,47,078,22*7E
$GPRMC,215850.571,V,3554.966,N,08202.514,W,23.9,3.22,080816,,E*41
$GPGGA,215851.571,3554.966,N,08202.514,W,0,04,0.2,,M,,M,,*76
$GPGLL,3554.966,N,08202.514,W,215852.571,V*3D
$GPGSA,A,3,07,19,04,05,17,12,,,,,,,0.1,0.8,0.8*38
$GPGSV,2,1,06,07,58,117,57,19,88,010,79,04,72,219,34,05,57,353,17*7C
$GPGSV,2,2,06,17,75,257,89,12,56,001,63*7E
$GPRMC,215856.571,V,3554.966,N,08202.516,W,84.8,3.16,080816,,E*4E
$GPGGA,215857.571,3554.966,N,08202.516,W,0,04,0.8,,M,,M,,*78
$GPGLL,3554.966,N,08202.516,W,215858.571,V*35
$GPGSA,A,2,07,19,04,05,17,12,,,,,,,0.7,0.9,0.2*34
$GPGSV,2,1,06,07,10,072,31,19,66,048,83,04,05,080,55,05,35,187,47*75
$GPGSV,2,2,06,17,28,346,24,12,80,108,22*76
$GPRMC,215902.571,V,3554.967,N,08202.518,W,83.0,3.13,080816,,E*4B
$GPGGA,215903.571,3554.967,N,08202.518,W,0,04,0.9,,M,,M,,*76
$GPGLL,3554.967,N,08202.518,W,215904.571,V*32
$GPGSA,A,2,07,19,04,05,17,12,,,,,,,0.4,0.7,0.7*3C
$GPGSV,2,1,06,07,85,217,42,19,87,044,87,04,47,322,67,05,24,096,62*71
$GPGSV,2,2,06,17,34,156,43,12,29,065,67*71
$GPRMC,215908.571,V,3554.967,N,08202.520,W,37.8,3.09,080816,,E*46
$GPGGA,215909.571,3554.967,N,08202.520,W,0,04,0.7,,M,,M,,*79
$GPGLL,3554.967,N,08202.520,W,215910.571,V*3C
$GPGSA,A,3,07,19,04,05,17,12,,,,,,,0.2,0.3,0.1*39
$GPGSV,2,1,06,07,34,270,56,19,28,067,82,04,30,342,21,05,53,272,43*71
$GPGSV,2,2,06,17,57,264,60,12,16,088,24*7F
$GPRMC,215914.571,V,3554.967,N,08202.521,W,68.8,3.13,080816,,E*4B
$GPGGA,215915.571,3554.967,N,08202.521,W,0,04,0.3,,M,,M,,*71
$GPGLL,3554.967,N,08202.521,W,215916.571,V*3B
$GPGSA,A,2,07,19,04,05,17,12,,,,,,,0.8,0.3,0.9*3A
$GPGSV,2,1,06,07,06,074,59,19,43,308,30,04,50,155,39,05,78,097,26*7F
$GPGSV,2,2,06,17,38,328,55,12,77,066,48*74
$GPRMC,215920.571,V,3554.968,N,08202.523,W,51.7,3.23,080816,,E*47
$GPGGA,215921.571,3554.968,N,08202.523,W,0,04,0.3,,M,,M,,*7B
$GPGLL,3554.968,N,08202.523,W,215922.571,V*31
$GPGSA,A,3,07,19,04,05,17,12,,,,,,,0.4,0.3,0.5*3B
$GPGSV,2,1,06,07,11,259,15,19,79,320,71,04,27,164,63,05,86,191,60*73
$GPGSV,2,2,06,17,65,350,76,12,73,207,30*7C
$GPRMC,215926.571,V,3554.968,N,08202.525,W,70.8,3.14,080816,,E*4F
$GPGGA,215927.571,3554.968,N,08202.525,W,0,04,0.3,,M,,M,,*7B
$GPGLL,3554.968,N,08202.525,W,215928.571,V*3D
$GPGSA,A,3,07,19,04,05,17,12,,,,,,,0.2,0.1,0.0*3A
$GPGSV,2,1,06,07,71,212,81,19,40,122,26,04,17,177,79,05,80,098,50*78
$GPGSV,2,2,06,17,76,055,54,12,74,232,30*79
$GPRMC,215932.571,V,3554.969,N,08202.527,W,21.7,3.24,080816,,E*41
$GPGGA,215933.571,3554.969,N,08202.527,W,0,04,0.1,,M,,M,,*7F
$GPGLL,3554.969,N,08202.527,W,215934.571,V*33
$GPGSA,A,3,07,19,04,05,17,12,,,,,,,0.3,0.8,0.9*3B
$GPGSV,2,1,06,07,56,276,20,19,82,351,19,04,64,145,24,05,89,302,34*76
$GPGSV,2,2,06,17,11,340,54,12,50,035,45*7E
$GPRMC,215938.571,V,3554.970,N,08202.528,W,52.9,3.35,080816,,E*46
$GPGGA,215939.571,3554.970,N,08202.528,W,0,04,0.8,,M,,M,,*7B
$GPGLL,3554.970,N,08202.528,W,215940.571,V*37
$GPGSA,A,2,07,19,04,05,17,12,,,,,,,0.1,0.6,0.7*38
$GPGSV,2,1,06,07,23,300,21,19,47,009,63,04,48,314,30,05,60,312,56*70
$GPGSV,2,2,06,17,61,039,69,12,06,086,21*73
$GPRMC,215944.571,V,3554.971,N,08202.530,W,80.3,3.30,080816,,E*45
$GPGGA,215945.571,3554.971,N,08202.530,W,0,04,0.6,,M,,M,,*76
$GPGLL,3554.971,N,08202.530,W,215946.571,V*39
$GPGSA,A,2,07,19,04,05,17,12,,,,,,,0.8,0.8,0.0*38
$GPGSV,2,1,06,07,57,342,70,19,19,167,33,04,63,046,75,05,65,139,33*77
$GPGSV,2,2,06,17,10,110,62,12,59,142,50*71
$GPRMC,215950.571,V,3554.972,N,08202.531,W,51.7,3.34,080816,,E*4E
$GPGGA,215951.571,3554.972,N,08202.531,W,0,04,0.8,,M,,M,,*7F
$GPGLL,3554.972,N,08202.531,W,215952.571,V*3E
$GPGSA,A,2,07,19,04,05,17,12,,,,,,,0.9,1.0,0.6*36
$GPGSV,2,1,06,07,20,095,65,19,87,296,37,04,20,014,24,05,65,081,68*7C
$GPGSV,2,2,06,17,11,345,34,12,45,127,59*76
$GPRMC,215956.571,V,3554.973,N,08202.532,W,6.7,3.67,080816,,E*7E
$GPGGA,215957.571,3554.973,N,08202.532,W,0,04,1.0,,M,,M,,*72
$GPGLL,3554.973,N,08202.532,W,215958.571,V*36
$GPGSA,A,2,07,19,04,05,17,12,,,,,,,0.6,0.8,0.1*37
$GPGSV,2,1,06,07,83,149,47,19,51,013,70,04,22,301,16,05,56,320,31*72
$GPGSV,2,2,06,17,76,049,83,12,62,240,42*79
$GPRMC,220002.571,V,3554.975,N,08202.533,W,66.2,3.78,080816,,E*4A
$GPGGA,220003.571,3554.975,N,08202.533,W,0,04,0.8,,M,,M,,*72
$GPGLL,3554.975,N,08202.533,W,220004.571,V*37
$GPGSA,A,2,07,19,04,05,17,12,,,,,,,1.0,0.3,0.5*3F
$GPGSV,2,1,06,07,11,075,81,19,42,225,39,04,58,104,89,05,67,302,49*74
$GPGSV,2,2,06,17,13,113,33,12,36,150,48*76
$GPRMC,220008.571,V,3554.977,N,08202.533,W,12.0,3.82,080816,,E*46
$GPGGA,220009.571,3554.977,N,08202.533,W,0,04,0.3,,M,,M,,*71
$GPGLL,3554.977,N,08202.533,W,220010.571,V*30
$GPGSA,A,3,07,19,04,05,17,12,,,,,,,0.7,0.6,0.8*30
$GPGSV,2,1,06,07,06,313,65,19,82,276,44,04,26,262,52,05,51,211,72*79
$GPGSV,2,2,06,17,33,256,45,12,59,147,77*74
$GPRMC,220014.571,V,3554.978,N,08202.534,W,4.3,3.79,080816,,E*73
$GPGGA,220015.571,3554.978,N,08202.534,W,0,04,0.6,,M,,M,,*71
$GPGLL,3554.978,N,08202.534,W,220016.571,V*3E
$GPGSA,A,3,07,19,04,05,17,12,,,,,,,1.0,0.5,0.0*3D
$GPGSV,2,1,06,07,45,305,33,19,84,002,36,04,37,125,40,05,79,055,62*72
$GPGSV,2,2,06,17,46,215,68,12,66,220,86*7E
$GPRMC,220020.571,V,3554.980,N,08202.533,W,24.3,4.23,080816,,E*4E
$GPGGA,220021.571,3554.980,N,08202.533,W,0,04,0.5,,M,,M,,*75
$GPGLL,3554.980,N,08202.533,W,220022.571,V*39
$GPGSA,A,2,07,19,04,05,17,12,,,,,,,0.0,1.0,0.1*38
$GPGSV,2,1,06,07,66,318,40,19,89,133,42,04,59,177,48,05,89,158,83*7D
$GPGSV,2,2,06,17,59,250,41,12,62,124,80*7F
$GPRMC,220026.571,V,3554.982,N,08202.533,W,26.9,4.13,080816,,E*41
$GPGGA,220027.571,3554.982,N,08202.533,W,0,04,1.0,,M,,M,,*75
$GPGLL,3554.982,N,08202.533,W,220028.571,V*31
$GPGSA,A,3,07,19,04,05,17,12,,,,,,,0.5,0.5,0.1*38
$GPGSV,2,1,06,07,15,094,21,19,18,311,21,04,77,097,76,05,12,217,40*7D
$GPGSV,2,2,06,17,88,173,44,12,49,220,48*7E
$GPRMC,220032.571,V,3554.983,N,08202.532,W,64.2,4.21,080816,,E*48
$GPGGA,220033.571,3554.983,N,08202.532,W,0,04,0.5,,M,,M,,*74
$GPGLL,3554.983,N,08202.532,W,220034.571,V*3C
$GPGSA,A,2,07,19,04,05,17,12,,,,,,,0.1,0.7,0.4*3A
$GPGSV,2,1,06,07,34,106,16,19,74,091,84,04,65,145,62,05,10,313,80*7D
$GPGSV,2,2,06,17,23,173,52,12,64,138,39*7B
$GPRMC,220038.571,V,3554.985,N,08202.532,W,75.4,4.17,080816,,E*47
$GPGGA,220039.571,3554.985,N,08202.532,W,0,04,0.7,,M,,M,,*7A
$GPGLL,3554.985,N,08202.532,W,220040.571,V*39
$GPGSA,A,2,07,19,04,05,17,12,,,,,,,0.3,0.6,0.4*39
$GPGSV,2,1,06,07,35,121,62,19,36,233,62,04,38,108,40,05,55,345,46*77
$GPGSV,2,2,06,17,57,035,49,12,08,269,54*77
$GPRMC,220044.571,V,3554.987,N,08202.531,W,40.7,4.19,080816,,E*46
$GPGGA,220045.571,3554.987,N,08202.531,W,0,04,0.6,,M,,M,,*71
$GPGLL,3554.987,N,08202.531,W,220046.571,V*3E
$GPGSA,A,2,07,19,04,05,17,12,,,,,,,0.3,0.2,1.0*38
$GPGSV,2,1,06,07,07,302,21,19,29,026,89,04,18,258,71,05,17,210,41*79
$GPGSV,2,2,06,17,51,277,62,12,50,031,69*70
$GPRMC,220050.571,V,3554.989,N,08202.531,W,90.2,4.22,080816,,E*4D
$GPGGA,220051.571,3554.989,N,08202.531,W,0,04,0.2,,M,,M,,*7E
$GPGLL,3554.989,N,08202.531,W,220052.571,V*35
$GPGSA,A,3,07,19,04,05,17,12,,,,,,,0.6,0.0,0.0*3F
$GPGSV,2,1,06,07,88,090,39,19,67,165,42,04,22,160,88,05,67,105,68*78
$GPGSV,2,2,06,17,63,077,84,12,47,203,60*77
$GPRMC,220056.571,V,3554.990,N,08202.530,W,39.0,4.27,080816,,E*46
$GPGGA,220057.571,3554.990,N,08202.530,W,0,04,0.0,,M,,M,,*73
$GPGLL,3554.990,N,08202.530,W,220058.571,V*36
$GPGSA,A,2,07,19,04,05,17,12,,,,,,,0.1,0.7,0.8*36
$GPGSV,2,1,06,07,79,186,41,19,87,202,34,04,53,250,58,05,58,016,23*79
$GPGSV,2,2,06,17,32,023,65,12,32,142,30*7C
$GPRMC,220102.571,V,3554.992,N,08202.529,W,20.5,4.25,080816,,E*43
$GPGGA,220103.571,3554.992,N,08202.529,W,0,04,0.7,,M,,M,,*7E
$GPGLL,3554.992,N,08202.529,W,220104.571,V*34
$GPGSA,A,2,07,19,04,05,17,12,,,,,,,0.7,0.5,0.9*33
$GPGSV,2,1,06,07,73,299,35,19,11,320,37,04,46,168,33,05,89,163,24*79
$GPGSV,2,2,06,17,23,242,35,12,62,195,25*77
$GPRMC,220108.571,V,3554.994,N,08202.529,W,90.9,4.16,080816,,E*48
$GPGGA,220109.571,3554.994,N,08202.529,W,0,04,0.5,,M,,M,,*70
$GPGLL,3554.994,N,08202.529,W,220110.571,V*37
$GPGSA,A,2,07,19,04,05,17,12,,,,,,,0.2,0.3,0.7*3E
$GPGSV,2,1,06,07,83,229,22,19,52,091,72,04,73,078,26,05,33,254,28*7C
$GPGSV,2,2,06,17,08,298,37,12,81,270,16*7E
$GPRMC,220114.571,V,3554.995,N,08202.528,W,93.4,4.12,080816,,E*4F
$GPGGA,220115.571,3554.995,N,08202.528,W,0,04,0.3,,M,,M,,*7B
$GPGLL,3554.995,N,08202.528,W,220116.571,V*31
$GPGSA,A,3,07,19,04,05,17,12,,,,,,,0.3,0.9,0.9*3A
$GPGSV,2,1,06,07,46,118,37,19,15,207,44,04,79,255,17,05,63,066,71*74
$GPGSV,2,2,06,17,25,125,69,12,72,181,78*76
$GPRMC,220120.571,V,3554.997,N,08202.528,W,11.7,4.09,080816,,E*49
$GPGGA,220121.571,3554.997,N,08202.528,W,0,04,0.9,,M,,M,,*74
$GPGLL,3554.997,N,08202.528,W,220122.571,V*34
$GPGSA,A,3,07,19,04,05,17,12,,,,,,,0.9,0.4,0.5*31
$GPGSV,2,1,06,07,24,080,66,19,65,100,57,04,54,141,48,05,61,256,80*7B
$GPGSV,2,2,06,17,74,340,59,12,73,038,30*7E
$GPRMC,220126.571,V,3554.999,N,08202.528,W,43.9,4.06,080816,,E*47
$GPGGA,220127.571,3554.999,N,08202.528,W,0,04,0.4,,M,,M,,*71
$GPGLL,3554.999,N,08202.528,W,220128.571,V*30
$GPGSA,A,3,07,19,04,05,17,12,,,,,,,0.0,0.8,0.3*32
$GPGSV,2,1,06,07,26,288,29,19,75,353,45,04,78,147,53,05,22,161,31*76
$GPGSV,2,2,06,17,07,284,68,12,10,098,25*7A
$GPRMC,220132.571,V,3555.001,N,08202.528,W,4.3,4.14,080816,,E*71
$GPGGA,220133.571,3555.001,N,08202.528,W,0,04,0.8,,M,,M,,*71
$GPGLL,3555.001,N,08202.528,W,220134.571,V*34
$GPGSA,A,3,07,19,04,05,17,12,,,,,,,0.0,0.3,0.2*38
$GPGSV,2,1,06,07,37,125,51,19,82,001,62,04,24,008,86,05,61,142,50*7E
$GPGSV,2,2,06,17,22,357,65,12,71,174,72*79
$GPRMC,220138.571,V,3555.002,N,08202.527,W,82.9,4.11,080816,,E*46
$GPGGA,220139.571,3555.002,N,08202.527,W,0,04,0.3,,M,,M,,*7C
$GPGLL,3555.002,N,08202.527,W,220140.571,V*3B
$GPGSA,A,2,07,19,04,05,17,12,,,,,,,0.9,0.4,0.4*31
$GPGSV,2,1,06,07,34,061,41,19,16,065,20,04,70,154,50,05,31,282,57*7B
$GPGSV,2,2,06,17,43,113,16,12,78,049,65*78
$GPRMC,220144.571,V,3555.004,N,08202.527,W,57.4,4.15,080816,,E*4A
$GPGGA,220145.571,3555.004,N,08202.527,W,0,04,0.4,,M,,M,,*76
$GPGLL,3555.004,N,08202.527,W,220146.571,V*3B
$GPGSA,A,2,07,19,04,05,17,12,,,,,,,0.2,0.7,0.4*39
$GPGSV,2,1,06,07,74,352,61,19,25,161,43,04,76,022,78,05,65,059,40*71
$GPGSV,2,2,06,17,06,068,43,12,70,314,82*7E
$GPRMC,220150.571,V,3555.006,N,08202.527,W,15.4,4.12,080816,,E*4C
$GPGGA,220151.571,3555.006,N,08202.527,W,0,04,0.7,,M,,M,,*72
$GPGLL,3555.006,N,08202.527,W,220152.571,V*3C
$GPGSA,A,2,07,19,04,05,17,12,,,,,,,0.5,0.5,0.7*3F
$GPGSV,2,1,06,07,06,172,29,19,18,253,24,04,30,084,84,05,83,054,56*7A
$GPGSV,2,2,06,17,07,151,83,12,82,176,55*79
$GPRMC,220156.571,V,3555.008,N,08202.526,W,24.0,4.16,080816,,E*47
$GPGGA,220157.571,3555.008,N,08202.526,W,0,04,0.5,,M,,M,,*79
$GPGLL,3555.008,N,08202.526,W,220158.571,V*39
$GPGSA,A,2,07,19,04,05,17,12,,,,,,,0.6,0.9,0.1*36
$GPGSV,2,1,06,07,43,177,69,19,35,215,84,04,20,154,53,05,22,184,47*7D
$GPGSV,2,2,06,17,68,193,45,12,42,134,16*79
$GPRMC,220202.571,V,3555.009,N,08202.527,W,35.8,3.77,080816,,E*4D
$GPGGA,220203.571,3555.009,N,08202.527,W,0,04,0.9,,M,,M,,*77
$GPGLL,3555.009,N,08202.527,W,220204.571,V*33
$GPGSA,A,2,07,19,04,05,17,12,,,,,,,0.7,0.7,0.3*3B
$GPGSV,2,1,06,07,56,111,58,19,33,011,21,04,44,323,60,05,75,326,31*7D
$GPGSV,2,2,06,17,22,118,78,12,87,264,77*72
$GPRMC,220208.571,V,3555.011,N,08202.527,W,57.0,3.85,080816,,E*4F
$GPGGA,220209.571,3555.011,N,08202.527,W,0,04,0.7,,M,,M,,*7A
$GPGLL,3555.011,N,08202.527,W,220210.571,V*3F
$GPGSA,A,2,07,19,04,05,17,12,,,,,,,0.8,0.6,0.2*34
$GPGSV,2,1,06,07,35,064,72,19,54,093,66,04,66,060,32,05,54,055,67*7F
$GPGSV,2,2,06,17,25,032,59,12,89,281,19*72
$GPRMC,220214.571,V,3555.013,N,08202.527,W,52.6,3.90,080816,,E*47
$GPGGA,220215.571,3555.013,N,08202.527,W,0,04,0.6,,M,,M,,*74
$GPGLL,3555.013,N,08202.527,W,220216.571,V*3B
$GPGSA,A,2,07,19,04,05,17,12,,,,,,,0.1,0.2,0.9*32
$GPGSV,2,1,06,07,88,055,85,19,69,104,47,04,38,268,57,05,54,236,39*7F
$GPGSV,2,2,06,17,75,263,51,12,35,235,24*7F
$GPRMC,220220.571,V,3555.015,N,08202.528,W,21.0,3.85,080816,,E*4F
$GPGGA,220221.571,3555.015,N,08202.528,W,0,04,0.2,,M,,M,,*7E
$GPGLL,3555.015,N,08202.528,W,220222.571,V*35
$GPGSA,A,3,07,19,04,05,17,12,,,,,,,0.9,0.3,0.9*3A
$GPGSV,2,1,06,07,37,170,43,19,08,351,65,04,07,201,67,05,16,207,75*7E
$GPGSV,2,2,06,17,09,075,88,12,23,011,52*77
$GPRMC,220226.571,V,3555.016,N,08202.528,W,39.8,3.79,080816,,E*48
$GPGGA,220227.571,3555.016,N,08202.528,W,0,04,0.3,,M,,M,,*7A
$GPGLL,3555.016,N,08202.528,W,220228.571,V*3C
$GPGSA,A,3,07,19,04,05,17,12,,,,,,,0.3,0.2,0.9*31
$GPGSV,2,1,06,07,84,292,40,19,54,075,31,04,80,229,89,05,34,151,62*74
$GPGSV,2,2,06,17,58,253,84,12,32,150,69*75
$GPRMC,220232.571,V,3555.018,N,08202.529,W,84.7,3.70,080816,,E*42
$GPGGA,220233.571,3555.018,N,08202.529,W,0,04,0.2,,M,,M,,*71
$GPGLL,3555.018,N,08202.529,W,220234.571,V*3E
$GPGSA,A,2,07,19,04,05,17,12,,,,,,,1.0,0.5,0.1*3D
$GPGSV,2,1,06,07,34,304,87,19,53,180,87,04,55,247,48,05,10,316,21*76
$GPGSV,2,2,06,17,55,349,27,12,14,235,49*7D
$GPRMC,220238.571,V,3555.019,N,08202.530,W,9.1,3.59,080816,,E*79
$GPGGA,220239.571,3555.019,N,08202.530,W,0,04,0.5,,M,,M,,*75
$GPGLL,3555.019,N,08202.530,W,220240.571,V*34
$GPGSA,A,2,07,19,04,05,17,12,,,,,,,0.9,0.5,0.7*33
$GPGSV,2,1,06,07,11,059,53,19,60,051,18,04,59,281,26,05,35,142,24*77
$GPGSV,2,2,06,17,79,055,47,12,59,096,15*70
$GPRMC,220244.571,V,3555.021,N,08202.531,W,84.4,3.64,080816,,E*46
$GPGGA,220245.571,3555.021,N,08202.531,W,0,04,0.5,,M,,M,,*74
$GPGLL,3555.021,N,08202.531,W,220246.571,V*38
$GPGSA,A,2,07,19,04,05,17,12,,,,,,,0.2,0.2,0.0*38
$GPGSV,2,1,06,07,76,041,18,19,60,209,80,04,32,035,70,05,31,353,64*7F
$GPGSV,2,2,06,17,12,239,20,12,24,134,53*75
$GPRMC,220250.571,V,3555.022,N,08202.532,W,43.6,3.55,080816,,E*48
$GPGGA,220251.571,3555.022,N,08202.532,W,0,04,0.2,,M,,M,,*76
$GPGLL,3555.022,N,08202.532,W,220252.571,V*3D
$GPGSA,A,2,07,19,04,05,17,12,,,,,,,0.2,0.5,0.7*38
$GPGSV,2,1,06,07,53,199,20,19,58,005,76,04,75,132,51,05,32,145,44*79
$GPGSV,2,2,06,17,12,338,34,12,40,241,86*7B
$GPRMC,220256.571,V,3555.023,N,08202.534,W,40.3,3.45,080816,,E*4E
$GPGGA,220257.571,3555.023,N,08202.534,W,0,04,0.5,,M,,M,,*70
$GPGLL,3555.023,N,08202.534,W,220258.571,V*30
$GPGSA,A,3,07,19,04,05,17,12,,,,,,,0.4,0.4,0.6*3F
$GPGSV,2,1,06,07,28,049,52,19,86,214,38,04,82,324,57,05,09,009,41*78
$GPGSV,2,2,06,17,78,173,74,12,25,267,42*71
$GPRMC,220302.571,V,3555.025,N,08202.535,W,4.1,3.39,080816,,E*70
$GPGGA,220303.571,3555.025,N,08202.535,W,0,04,0.4,,M,,M,,*76
$GPGLL,3555.025,N,08202.535,W,220304.571,V*3F
$GPGSA,A,3,07,19,04,05,17,12,,,,,,,0.0,0.6,0.2*3D
$GPGSV,2,1,06,07,80,270,58,19,61,132,22,04,38,108,18,05,65,094,77*70
$GPGSV,2,2,06,17,18,336,29,12,82,120,55*77
$GPRMC,220308.571,V,3555.025,N,08202.537,W,20.0,3.30,080816,,E*46
$GPGGA,220309.571,3555.025,N,08202.537,W,0,04,0.6,,M,,M,,*7C
$GPGLL,3555.025,N,08202.537,W,220310.571,V*38
$GPGSA,A,2,07,19,04,05,17,12,,,,,,,0.8,0.0,0.4*34
$GPGSV,2,1,06,07,35,116,76,19,86,339,38,04,82,162,68,05,12,244,62*7B
$GPGSV,2,2,06,17,45,298,73,12,33,172,81*71
$GPRMC,220314.571,V,3555.026,N,08202.538,W,74.9,3.40,080816,,E*48
$GPGGA,220315.571,3555.026,N,08202.538,W,0,04,0.0,,M,,M,,*7B
$GPGLL,3555.026,N,08202.538,W,220316.571,V*32
$GPGSA,A,3,07,19,04,05,17,12,,,,,,,0.3,0.0,0.2*38
$GPGSV,2,1,06,07,72,340,21,19,08,251,38,04,11,190,24,05,53,105,26*7E
$GPGSV,2,2,06,17,85,040,31,12,64,226,63*70
$GPRMC,220320.571,V,3555.027,N,08202.540,W,87.4,3.35,080816,,E*42
$GPGGA,220321.571,3555.027,N,08202.540,W,0,04,0.0,,M,,M,,*72
$GPGLL,3555.027,N,08202.540,W,220322.571,V*3B
$GPGSA,A,2,07,19,04,05,17,12,,,,,,,0.4,1.0,0.5*38
$GPGSV,2,1,06,07,19,082,75,19,75,021,15,04,45,168,64,05,62,079,48*7D
$GPGSV,2,2,06,17,14,223,24,12,25,065,57*7C
$GPRMC,220326.571,V,3555.028,N,08202.542,W,31.4,3.29,080816,,E*49
$GPGGA,220327.571,3555.028,N,08202.542,W,0,04,1.0,,M,,M,,*78
$GPGLL,3555.028,N,08202.542,W,220328.571,V*3C
$GPGSA,A,2,07,19,04,05,17,12,,,,,,,0.6,0.1,0.7*38
$GPGSV,2,1,06,07,26,131,72,19,80,176,61,04,10,308,56,05,85,046,28*73
$GPGSV,2,2,06,17,60,176,40,12,88,314,47*7D
$GPRMC,220332.571,V,3555.029,N,08202.543,W,5.0,3.36,080816,,E*71
$GPGGA,220333.571,3555.029,N,08202.543,W,0,04,0.1,,M,,M,,*7D
$GPGLL,3555.029,N,08202.543,W,220334.571,V*31
$GPGSA,A,2,07,19,04,05,17,12,,,,,,,0.6,0.4,0.4*3E
$GPGSV,2,1,06,07,67,026,54,19,19,256,57,04,56,068,30,05,05,321,83*7D
$GPGSV,2,2,06,17,89,181,84,12,68,345,88*73
$GPRMC,220338.571,V,3555.030,N,08202.545,W,1.4,3.33,080816,,E*70
$GPGGA,220339.571,3555.030,N,08202.545,W,0,04,0.4,,M,,M,,*7C
$GPGLL,3555.030,N,08202.545,W,220340.571,V*3C
$GPGSA,A,3,07,19,04,05,17,12,,,,,,,0.3,0.7,0.8*35
$GPGSV,2,1,06,07,86,139,63,19,56,036,70,04,61,212,39,05,72,044,79*74
$GPGSV,2,2,06,17,05,071,65,12,31,314,52*79
$GPRMC,220344.571,V,3555.032,N,08202.545,W,97.0,3.75,080816,,E*40
$GPGGA,220345.571,3555.032,N,08202.545,W,0,04,0.7,,M,,M,,*76
$GPGLL,3555.032,N,08202.545,W,220346.571,V*38
$GPGSA,A,2,07,19,04,05,17,12,,,,,,,0.8,0.7,0.0*37
$GPGSV,2,1,06,07,27,180,22,19,29,331,79,04,36,075,73,05,38,012,31*73
$GPGSV,2,2,06,17,44,144,19,12,65,186,54*7E
$GPRMC,220350.571,V,3555.033,N,08202.545,W,80.0,4.25,080816,,E*40
$GPGGA,220351.571,3555.033,N,08202.545,W,0,04,0.7,,M,,M,,*72
$GPGLL,3555.033,N,08202.545,W,220352.571,V*3C
$GPGSA,A,2,07,19,04,05,17,12,,,,,,,0.6,0.9,0.7*30
$GPGSV,2,1,06,07,68,186,75,19,72,046,78,04,06,289,73,05,31,127,76*7F
$GPGSV,2,2,06,17,13,335,62,12,41,109,38*7F
$GPRMC,220356.571,V,3555.035,N,08202.543,W,14.9,4.49,080816,,E*48
$GPGGA,220357.571,3555.035,N,08202.543,W,0,04,0.9,,M,,M,,*7A
$GPGLL,3555.035,N,08202.543,W,220358.571,V*36
$GPGSA,A,2,07,19,04,05,17,12,,,,,,,0.5,0.3,0.7*39
$GPGSV,2,1,06,07,62,266,22,19,54,229,20,04,81,269,49,05,35,208,61*7C
$GPGSV,2,2,06,17,17,057,29,12,23,055,72*71
$GPRMC,220402.571,V,3555.036,N,08202.542,W,79.4,4.55,080816,,E*47
$GPGGA,220403.571,3555.036,N,08202.542,W,0,04,0.3,,M,,M,,*74
$GPGLL,3555.036,N,08202.542,W,220404.571,V*3A
$GPGSA,A,2,07,19,04,05,17,12,,,,,,,0.4,0.7,0.9*32
$GPGSV,2,1,06,07,33,345,16,19,12,102,35,04,33,010,19,05,61,110,46*7D
$GPGSV,2,2,06,17,55,055,41,12,29,073,17*76
$GPRMC,220408.571,V,3555.036,N,08202.540,W,9.3,5.02,080816,,E*7C
$GPGGA,220409.571,3555.036,N,08202.540,W,0,04,0.7,,M,,M,,*78
$GPGLL,3555.036,N,08202.540,W,220410.571,V*3D
$GPGSA,A,3,07,19,04,05,17,12,,,,,,,0.7,0.5,1.0*3A
$GPGSV,2,1,06,07,83,205,70,19,56,177,43,04,08,055,48,05,34,241,50*7D
$GPGSV,2,2,06,17,13,294,49,12,64,049,38*7E
$GPRMC,220414.571,V,3555.036,N,08202.538,W,15.6,4.99,080816,,E*45
$GPGGA,220415.571,3555.036,N,08202.538,W,0,04,0.5,,M,,M,,*78
$GPGLL,3555.036,N,08202.538,W,220416.571,V*34
$GPGSA,A,3,07,19,04,05,17,12,,,,,,,0.2,0.2,0.2*3B
$GPGSV,2,1,06,07,45,263,25,19,59,329,81,04,22,074,85,05,39,233,78*77
$GPGSV,2,2,06,17,76,038,50,12,31,183,81*74
